,timestamp,longitude,latitude,elevation,horizontal_accuracy,GPSspeed,yaw,pitch,roll,accelerationX,accelerationY,accelerationZ,pressure,compass,videoIndex,tripFrameIndex,gravityX,gravityY,gravityZ,OBD2speed,vertical_accuracy,bump
23,1511116221.998785,-118.43337199999999,34.031434000000004,60.617363,10.0,26.780001000000002,,,,,,,,,,,,,,,6.0,0.3207900170818396
49,1511116222.998785,-118.43365800000001,34.031393,59.538321999999994,10.0,26.780001000000002,,,,,,,,,,,,,,,6.0,0.16223998289683778
78,1511116223.998785,-118.43393700000001,34.031353,58.923149,10.0,26.459999,,,,,,,,,,,,,,,6.0,0.3129990537514351
105,1511116224.998785,-118.434221,34.031318,58.935233999999994,10.0,26.459999,,,,,,,,,,,,,,,6.0,0.1502559147837016
134,1511116225.998784,-118.434509,34.031271999999994,59.370476000000004,10.0,26.290001,,,,,,,,,,,,,,,6.0,0.1510019391782357
160,1511116226.998785,-118.43479599999999,34.031234000000005,60.016899,10.0,26.620001000000002,,,,,,,,,,,,,,,6.0,0.2605057795764404
191,1511116227.998784,-118.43506699999999,34.031197,59.576775,10.0,26.43,,,,,,,,,,,,,,,6.0,0.1097127946965744
218,1511116228.998785,-118.435346,34.03115,58.605339,10.0,26.059998999999998,,,,,,,,,,,,,,,6.0,0.17653511508604072
245,1511116229.998784,-118.4356,34.031113,57.60570500000001,10.0,25.610001,,,,,,,,,,,,,,,6.0,0.23350853750547254
271,1511116230.998784,-118.435874,34.031073,57.214408999999996,10.0,25.83,,,,,,,,,,,,,,,6.0,0.13772309393651072
298,1511116231.998784,-118.436153,34.031028000000006,57.622002,10.0,25.620001000000002,,,,,,,,,,,,,,,6.0,0.16093313787937788
326,1511116232.998785,-118.436426,34.030985,57.666313,10.0,25.620001000000002,,,,,,,,,,,,,,,6.0,0.11902238445012182
353,1511116233.998784,-118.43673899999999,34.030962,58.015862,10.0,26.84,,,,,,,,,,,,,,,6.0,0.1544654571663827
381,1511116234.998784,-118.43701899999999,34.030925,57.879082,10.0,26.870001000000002,,,,,,,,,,,,,,,6.0,0.199922547020147
408,1511116235.998785,-118.43730900000001,34.030878,57.113335,10.0,27.209999,,,,,,,,,,,,,,,6.0,0.1499710464045091
437,1511116236.998785,-118.437611,34.030833,56.803398,10.0,27.32,,,,,,,,,,,,,,,6.0,0.13584133562901365
464,1511116237.998785,-118.43789699999999,34.030795,55.714957999999996,10.0,27.48,,,,,,,,,,,,,,,6.0,0.12674739862809126
490,1511116238.998785,-118.43818999999999,34.03075,55.860893000000004,10.0,27.67,,,,,,,,,,,,,,,6.0,0.1433499947117085
517,1511116239.998784,-118.43852199999999,34.030734,52.897148,10.0,27.700001,,,,,,,,,,,,,,,6.0,0.12704300068189203
543,1511116240.998785,-118.438825,34.030688,53.580925,10.0,27.889999,,,,,,,,,,,,,,,6.0,0.10312047555422242
571,1511116241.998785,-118.439107,34.030640000000005,54.852837,10.0,27.98,,,,,,,,,,,,,,,6.0,0.12910659839565178
598,1511116242.998785,-118.439398,34.030599,54.700309999999995,10.0,27.65,,,,,,,,,,,,,,,6.0,0.3494163172247843
628,1511116243.998785,-118.439695,34.030555,54.647881000000005,10.0,27.51,,,,,,,,,,,,,,,6.0,0.1695485471803339
656,1511116244.998785,-118.43998700000002,34.030512,55.068291,10.0,27.370001000000002,,,,,,,,,,,,,,,6.0,0.1866897678953336
684,1511116245.998784,-118.440275,34.030471,54.648003,10.0,27.0,,,,,,,,,,,,,,,6.0,0.15641688518770175
711,1511116246.998785,-118.44053600000001,34.030436,55.000237,10.0,25.84,,,,,,,,,,,,,,,6.0,0.21871664785721764
739,1511116247.998785,-118.440816,34.030396,54.563469,10.0,25.440001000000002,,,,,,,,,,,,,,,6.0,0.18131200843883793
766,1511116248.998785,-118.44108600000001,34.030359000000004,55.063713,10.0,25.280001000000002,,,,,,,,,,,,,,,6.0,0.13756921218084356
793,1511116249.998785,-118.441354,34.030315,55.595879000000004,10.0,25.65,,,,,,,,,,,,,,,6.0,0.14307888832643267
820,1511116250.998785,-118.44163400000001,34.030274,55.068413,10.0,26.0,,,,,,,,,,,,,,,6.0,0.15008722687013212
848,1511116251.998785,-118.441919,34.030228,55.020012,10.0,26.719998999999998,,,,,,,,,,,,,,,6.0,0.13710259855717014
876,1511116252.998785,-118.442206,34.030183,55.390923,10.0,26.799999,,,,,,,,,,,,,,,6.0,0.16470161322275495
904,1511116253.998784,-118.442489,34.03013,54.700249,10.0,26.92,,,,,,,,,,,,,,,6.0,0.19602476370155916
932,1511116254.998784,-118.442779,34.030088,53.298759,10.0,27.16,,,,,,,,,,,,,,,6.0,0.17585227813823842
960,1511116255.998785,-118.443071,34.030029,53.229546,10.0,27.469998999999998,,,,,,,,,,,,,,,6.0,0.20018127857020324
987,1511116256.998785,-118.443348,34.029971,53.51696,10.0,27.290001,,,,,,,,,,,,,,,6.0,0.15208869151423443
1015,1511116257.998784,-118.44363700000001,34.029892,54.125175,10.0,27.790001,,,,,,,,,,,,,,,6.0,0.17019755218441865
1042,1511116258.998785,-118.443929,34.029826,53.9226,10.0,28.02,,,,,,,,,,,,,,,6.0,0.2520119143566539
1071,1511116259.998785,-118.44420600000001,34.029746,53.68224300000001,10.0,28.219998999999998,,,,,,,,,,,,,,,6.0,0.18043253063842155
1099,1511116260.998784,-118.444499,34.02966,53.00048100000001,10.0,28.4,,,,,,,,,,,,,,,6.0,0.19380867967153068
1126,1511116261.998785,-118.444796,34.029576,52.850761,10.0,28.66,,,,,,,,,,,,,,,6.0,0.10981700617969467
1153,1511116262.998785,-118.445095,34.029494,52.842155000000005,10.0,28.879998999999998,,,,,,,,,,,,,,,6.0,0.1142867385485782
1180,1511116263.998785,-118.445393,34.029415,52.66881600000001,10.0,28.879998999999998,,,,,,,,,,,,,,,6.0,0.07243108071077123
1209,1511116264.998785,-118.4457,34.029346000000004,51.754996999999996,10.0,29.25,,,,,,,,,,,,,,,6.0,0.09994226181133198
1237,1511116265.998784,-118.446003,34.029261,52.219840999999995,10.0,29.4,,,,,,,,,,,,,,,6.0,0.13575473202851196
1264,1511116266.998785,-118.446303,34.02918,52.161125,10.0,29.540001,,,,,,,,,,,,,,,6.0,0.15572967078435415
1291,1511116267.998785,-118.446592,34.029099,51.92907,10.0,29.459999,,,,,,,,,,,,,,,4.0,0.13849379208042792
1318,1511116268.998785,-118.4469,34.029008000000005,52.95983100000001,10.0,29.77,,,,,,,,,,,,,,,6.0,0.1321128191025045
1344,1511116269.998784,-118.44720600000001,34.028918,52.508904,10.0,29.719998999999998,,,,,,,,,,,,,,,6.0,0.1405426299860467
1373,1511116270.998785,-118.44751000000001,34.028831,52.373160999999996,10.0,29.65,,,,,,,,,,,,,,,6.0,0.16294067391757042
1399,1511116271.998785,-118.447847,34.028773,49.80352,10.0,29.58,,,,,,,,,,,,,,,6.0,0.1336163582560474
1427,1511116272.998786,-118.448151,34.028689,50.232109,10.0,29.58,,,,,,,,,,,,,,,6.0,0.13367830513188547
1455,1511116273.998784,-118.448453,34.028607,50.265984,10.0,29.639999,,,,,,,,,,,,,,,6.0,0.11684330798630337
1482,1511116274.998785,-118.448755,34.028524,50.62249,10.0,29.620001000000002,,,,,,,,,,,,,,,6.0,0.16176666259007322
1509,1511116275.998784,-118.44905700000001,34.02844,50.570915,10.0,29.370001000000002,,,,,,,,,,,,,,,6.0,0.2219610790778524
1536,1511116276.998785,-118.449358,34.028357,50.058890999999996,10.0,29.209999,,,,,,,,,,,,,,,6.0,0.19586927229645879
1564,1511116277.998786,-118.449657,34.028275,49.951347,10.0,29.18,,,,,,,,,,,,,,,6.0,0.1560672672133435
1591,1511116278.998784,-118.44995800000001,34.028195000000004,49.672661,10.0,29.41,,,,,,,,,,,,,,,4.0,0.1179518278001987
1619,1511116279.998785,-118.45026599999998,34.02812,48.776848,10.0,29.049999,,,,,,,,,,,,,,,4.0,0.15670825895709709
1645,1511116280.998785,-118.45056399999999,34.028040999999995,48.828972,10.0,28.67,,,,,,,,,,,,,,,4.0,0.15758806256715555
1674,1511116281.998785,-118.45086,34.027965,48.881401000000004,10.0,28.66,,,,,,,,,,,,,,,4.0,0.18637190809704052
1705,1511116282.998784,-118.45116399999999,34.027923,48.23632,10.0,28.1,,,,,,,,,,,,,,,4.0,0.15722976596559549
1734,1511116283.998785,-118.45146499999998,34.027869,48.988335,10.0,28.26,,,,,,,,,,,,,,,4.0,0.17216486437907041
1761,1511116284.998785,-118.45176599999999,34.027831,50.133415,10.0,28.299999,,,,,,,,,,,,,,,4.0,0.13547559525020642
1791,1511116285.998785,-118.45206200000001,34.027806,50.234673,10.0,28.530001000000002,,,,,,,,,,,,,,,4.0,0.44811009358835546
1831,1511116286.998784,-118.452374,34.027792,50.825859,10.0,28.610001,,,,,,,,,,,,,,,4.0,0.17797060447590485
1859,1511116287.998784,-118.452676,34.027782,53.410515000000004,10.0,28.799999,,,,,,,,,,,,,,,4.0,0.1341039163191308
1887,1511116288.998785,-118.45298000000001,34.027805,54.105522,10.0,28.790001,,,,,,,,,,,,,,,4.0,0.17655369807458465
1914,1511116289.998785,-118.45328799999999,34.027821,54.32390600000001,10.0,28.620001000000002,,,,,,,,,,,,,,,4.0,0.13841652377412655
1942,1511116290.998784,-118.453602,34.027838,53.364922,10.0,29.299999,,,,,,,,,,,,,,,4.0,0.1715173327108725
1971,1511116291.998785,-118.45391299999999,34.027845,53.10631600000001,10.0,29.52,,,,,,,,,,,,,,,4.0,0.1840032995063541
1999,1511116292.998785,-118.454256,34.027882,52.740531999999995,10.0,29.73,,,,,,,,,,,,,,,4.0,0.22957767243851435
2027,1511116293.998784,-118.454577,34.027898,51.579643,10.0,29.99,,,,,,,,,,,,,,,4.0,0.21926954986171981
2058,1511116294.998784,-118.45489599999999,34.027908000000004,51.921196,10.0,29.58,,,,,,,,,,,,,,,4.0,0.25629930266218764
2087,1511116295.998784,-118.455223,34.027899,52.124992,10.0,30.09,,,,,,,,,,,,,,,4.0,0.23363633458306243
2117,1511116296.998785,-118.45555,34.027877000000004,52.169182,10.0,30.309998999999998,,,,,,,,,,,,,,,4.0,0.2155756723589749
2146,1511116297.998785,-118.45587900000001,34.027844,52.218987,10.0,30.75,,,,,,,,,,,,,,,4.0,0.20125359510757881
2174,1511116298.998785,-118.456221,34.027795000000005,52.425284999999995,10.0,30.610001,,,,,,,,,,,,,,,4.0,0.1487953133661639
2201,1511116299.998785,-118.45653999999999,34.027728,52.128044,10.0,30.959999,,,,,,,,,,,,,,,4.0,0.17555871232646983
2228,1511116300.998785,-118.456869,34.027665999999996,51.858757000000004,10.0,30.940001000000002,,,,,,,,,,,,,,,4.0,0.154233254582566
2256,1511116301.998785,-118.457203,34.027592999999996,51.451653,10.0,31.379998999999998,,,,,,,,,,,,,,,4.0,0.14977759388906592
2283,1511116302.998785,-118.457532,34.02753,51.632439,10.0,31.280001000000002,,,,,,,,,,,,,,,4.0,0.16065987968187
2310,1511116303.998785,-118.457858,34.027463,51.516289,10.0,31.27,,,,,,,,,,,,,,,4.0,0.13019057015519286
2337,1511116304.998784,-118.45818799999999,34.027394,51.513847,10.0,31.219998999999998,,,,,,,,,,,,,,,4.0,0.14437944522143203
2364,1511116305.998785,-118.45851699999999,34.027327,51.368279,10.0,31.15,,,,,,,,,,,,,,,4.0,0.14234046422375762
2391,1511116306.998785,-118.458846,34.027263,51.423027000000005,10.0,31.09,,,,,,,,,,,,,,,4.0,0.14084957032890574
2418,1511116307.998784,-118.459171,34.027196999999994,51.308586,10.0,31.02,,,,,,,,,,,,,,,4.0,0.12169269218155387
2444,1511116308.998784,-118.45949499999999,34.027132,51.58831,10.0,30.9,,,,,,,,,,,,,,,4.0,0.15059377155568848
2473,1511116309.998785,-118.45982099999999,34.027066,51.352409,10.0,30.860001,,,,,,,,,,,,,,,4.0,0.11801670543944999
2500,1511116310.998785,-118.46014199999999,34.026996999999994,51.969109,10.0,30.889999,,,,,,,,,,,,,,,4.0,0.15837573294867824
2527,1511116311.998785,-118.46046399999999,34.026928000000005,52.18737,10.0,30.83,,,,,,,,,,,,,,,3.0,0.14163733939258794
2556,1511116312.998785,-118.46078500000002,34.026862,51.79052,10.0,30.65,,,,,,,,,,,,,,,3.0,0.15254871352740373
2585,1511116313.998785,-118.461099,34.026792,52.106194,10.0,30.450001,,,,,,,,,,,,,,,3.0,0.13087288043721496
2611,1511116314.998784,-118.46141599999999,34.026722,52.250481,10.0,30.139999,,,,,,,,,,,,,,,3.0,0.13664127185738772
2638,1511116315.998785,-118.461739,34.026658000000005,51.758232,10.0,29.799999,,,,,,,,,,,,,,,3.0,0.17163461691357618
2666,1511116316.998784,-118.46204099999999,34.026582,52.745964,10.0,29.51,,,,,,,,,,,,,,,4.0,0.15533775605844397
2694,1511116317.998784,-118.462331,34.026506,53.106438,10.0,28.59,,,,,,,,,,,,,,,4.0,0.12314757165539472
2721,1511116318.998784,-118.462607,34.026428,53.690666,10.0,27.709999,,,,,,,,,,,,,,,4.0,0.14243918310075393
2750,1511116319.998785,-118.46288,34.026357,53.934746,10.0,27.15,,,,,,,,,,,,,,,4.0,0.19343991905943445
2780,1511116320.998785,-118.463158,34.026299,53.774406000000006,10.0,26.780001000000002,,,,,,,,,,,,,,,4.0,0.24849392714755367
2806,1511116321.998784,-118.463427,34.026232,53.593315000000004,10.0,26.280001000000002,,,,,,,,,,,,,,,3.0,0.14691162028549756
2833,1511116322.998785,-118.463677,34.026171999999995,53.050591000000004,10.0,25.15,,,,,,,,,,,,,,,3.0,0.12178724715694306
2860,1511116323.998785,-118.46392800000001,34.026109000000005,52.360039,10.0,24.01,,,,,,,,,,,,,,,4.0,0.13440220058513488
2887,1511116324.998785,-118.464173,34.026047999999996,51.983391,10.0,23.450001,,,,,,,,,,,,,,,4.0,0.13312858587681792
2915,1511116325.998784,-118.46441200000001,34.025987,51.656609,10.0,23.01,,,,,,,,,,,,,,,4.0,0.1530818338931529
2942,1511116326.998785,-118.464642,34.025928,51.800774,10.0,22.74,,,,,,,,,,,,,,,4.0,0.13536178554104608
2969,1511116327.998784,-118.464876,34.025866,51.265556,10.0,22.360001,,,,,,,,,,,,,,,4.0,0.11688587198394934
2996,1511116328.998785,-118.465101,34.025804,51.003654,10.0,21.9,,,,,,,,,,,,,,,4.0,0.17384379997122665
3026,1511116329.998785,-118.465324,34.02575,50.263542,10.0,21.48,,,,,,,,,,,,,,,3.0,0.20058840249561827
3054,1511116330.998785,-118.465554,34.025698,50.217827,10.0,21.25,,,,,,,,,,,,,,,3.0,0.11117084426426162
3081,1511116331.998784,-118.465769,34.025653000000005,49.914116,10.0,21.049999,,,,,,,,,,,,,,,3.0,0.19816329528915502
3108,1511116332.998784,-118.46598200000001,34.025602,49.582634000000006,10.0,20.709999,,,,,,,,,,,,,,,3.0,0.11363847285838835
3134,1511116333.998785,-118.46619,34.025549,50.138664,10.0,20.51,,,,,,,,,,,,,,,3.0,0.14577664748499194
3162,1511116334.998785,-118.4664,34.025503,49.915459000000006,10.0,20.18,,,,,,,,,,,,,,,3.0,0.13122993042327288
3189,1511116335.998785,-118.466613,34.025458,49.833,10.0,19.91,,,,,,,,,,,,,,,4.0,0.12028112958770287
3217,1511116336.998785,-118.466823,34.025411,49.817375,10.0,20.09,,,,,,,,,,,,,,,4.0,0.11941064070797351
3244,1511116337.998785,-118.46702900000001,34.02536,50.146477000000004,10.0,20.4,,,,,,,,,,,,,,,4.0,0.11802442991931143
3270,1511116338.998785,-118.467252,34.025311,49.890312,10.0,20.42,,,,,,,,,,,,,,,4.0,0.12526616347150768
3296,1511116339.998785,-118.46746399999999,34.025259999999996,49.572379999999995,10.0,20.139999,,,,,,,,,,,,,,,4.0,0.13680129215047646
3324,1511116340.998785,-118.467673,34.025211999999996,49.228264,10.0,19.83,,,,,,,,,,,,,,,4.0,0.14718071422059012
3353,1511116341.998785,-118.46788400000001,34.025172,48.930962,10.0,19.51,,,,,,,,,,,,,,,3.0,0.14609562601277987
3380,1511116342.998784,-118.46808600000001,34.025131,48.667656,10.0,19.360001,,,,,,,,,,,,,,,3.0,0.12651236227165896
3407,1511116343.998784,-118.46828700000002,34.025099,48.538016999999996,10.0,18.940001000000002,,,,,,,,,,,,,,,3.0,0.12413699231390991
3434,1511116344.998785,-118.46847700000001,34.025081,49.561638,10.0,18.200001,,,,,,,,,,,,,,,3.0,0.199878142846562
3460,1511116345.998785,-118.46866100000001,34.025065000000005,50.642082,10.0,16.940001000000002,,,,,,,,,,,,,,,3.0,0.17913898618965554
3488,1511116346.998785,-118.46882099999999,34.025040999999995,51.002251,10.0,15.11,,,,,,,,,,,,,,,3.0,0.2500184103188313
3517,1511116347.998785,-118.46896699999999,34.025022,51.879875,10.0,13.59,,,,,,,,,,,,,,,3.0,0.26018704439828083
3543,1511116348.998785,-118.469094,34.024998,52.407036,10.0,11.8,,,,,,,,,,,,,,,3.0,0.24346281329121208
3571,1511116349.998785,-118.469195,34.024982,52.719475,10.0,9.5,,,,,,,,,,,,,,,3.0,0.16438103137326332
3597,1511116350.998785,-118.46926100000002,34.024966,52.538078000000006,10.0,6.45,,,,,,,,,,,,,,,3.0,0.12166689570420758
3624,1511116351.998785,-118.469324,34.024958000000005,52.476555000000005,10.0,5.49,,,,,,,,,,,,,,,3.0,0.049675241874609304
3651,1511116352.998785,-118.469366,34.024972999999996,50.413139,10.0,1.99,,,,,,,,,,,,,,,3.0,0.04255600200977245
3680,1511116353.998785,-118.469375,34.024972999999996,50.466667,10.0,0.56,,,,,,,,,,,,,,,3.0,0.08850364365718186
3707,1511116354.998784,-118.46938,34.024965,50.575554,10.0,0.28,,,,,,,,,,,,,,,3.0,0.025389139630906707
3735,1511116355.998785,-118.46938,34.024965,50.56292,10.0,0.0,,,,,,,,,,,,,,,3.0,0.015476007831882339
3761,1511116356.998784,-118.46938,34.024965,50.510368,10.0,0.0,,,,,,,,,,,,,,,3.0,0.012955403966638314
3788,1511116357.998785,-118.46938,34.024965,50.534721000000005,10.0,0.0,,,,,,,,,,,,,,,3.0,0.01268885219141837
3813,1511116358.998784,-118.46938,34.024965,50.637015999999996,10.0,0.0,,,,,,,,,,,,,,,3.0,0.009861356441917954
3839,1511116359.998785,-118.46938,34.024965,50.386223,10.0,0.0,,,,,,,,,,,,,,,3.0,0.009670856591103316
3865,1511116360.998785,-118.46938,34.024965,50.292229,10.0,0.0,,,,,,,,,,,,,,,3.0,0.009528462418743677
3891,1511116361.998785,-118.46938,34.024965,50.043633,10.0,0.0,,,,,,,,,,,,,,,4.0,0.012351074954769368
3917,1511116362.998785,-118.46938,34.024965,50.093498,10.0,0.0,,,,,,,,,,,,,,,4.0,0.012697227516908844
3943,1511116363.998785,-118.46938,34.024965,49.919365,10.0,0.0,,,,,,,,,,,,,,,4.0,0.01272088290517978
3970,1511116364.998785,-118.46938,34.024965,49.942558,10.0,0.0,,,,,,,,,,,,,,,3.0,0.010267723399705156
3996,1511116365.998784,-118.46938,34.024965,49.950249,10.0,0.0,,,,,,,,,,,,,,,3.0,0.009827049981953679
4022,1511116366.998784,-118.46938,34.024965,49.968498,10.0,0.0,,,,,,,,,,,,,,,3.0,0.010197223738104414
4047,1511116367.998785,-118.46938,34.024965,49.962151,10.0,0.0,,,,,,,,,,,,,,,3.0,0.009030753410923138
4073,1511116368.998784,-118.46938,34.024965,50.034904,10.0,0.0,,,,,,,,,,,,,,,3.0,0.009760759002149167
4099,1511116369.998785,-118.46938,34.024965,50.042412,10.0,0.0,,,,,,,,,,,,,,,3.0,0.010513982498348642
4126,1511116370.998785,-118.46938,34.024965,50.017693,10.0,0.0,,,,,,,,,,,,,,,3.0,0.012606629443800865
4152,1511116371.998785,-118.46938,34.024965,50.056389,10.0,0.0,,,,,,,,,,,,,,,3.0,0.01245035886120532
4180,1511116372.998785,-118.46938,34.024965,50.115959000000004,10.0,0.0,,,,,,,,,,,,,,,3.0,0.016285351505231204
4206,1511116373.998784,-118.46938,34.024965,50.137383,10.0,0.0,,,,,,,,,,,,,,,3.0,0.03440649498615122
4232,1511116374.998785,-118.46938,34.024965,50.095207,10.0,0.0,,,,,,,,,,,,,,,3.0,0.024171232129749497
4258,1511116375.998785,-118.46936699999999,34.024947999999995,50.029228,10.0,0.44,,,,,,,,,,,,,,,3.0,0.014475218513929317
4284,1511116376.998785,-118.46936699999999,34.024947999999995,50.334038,10.0,0.0,,,,,,,,,,,,,,,3.0,0.010079373738732286
4309,1511116377.998785,-118.46936699999999,34.024947999999995,49.877495,10.0,0.0,,,,,,,,,,,,,,,3.0,0.009314136003113656
4335,1511116378.998784,-118.46936699999999,34.024947999999995,49.792473,10.0,0.0,,,,,,,,,,,,,,,3.0,0.03574034425922156
4362,1511116379.998785,-118.46936699999999,34.024947999999995,49.842521999999995,10.0,0.0,,,,,,,,,,,,,,,3.0,0.06128687785263301
4389,1511116380.998784,-118.469375,34.02496,49.894829,10.0,1.06,,,,,,,,,,,,,,,3.0,0.0334158707209828
4415,1511116381.998785,-118.46938300000001,34.02495,50.392265,10.0,1.28,,,,,,,,,,,,,,,3.0,0.031372024000622056
4441,1511116382.998785,-118.46939099999999,34.024939,49.825676,10.0,1.31,,,,,,,,,,,,,,,3.0,0.036824713299015856
4468,1511116383.998785,-118.469397,34.024937,49.325005,10.0,0.3,,,,,,,,,,,,,,,3.0,0.040285165622934056
4496,1511116384.998785,-118.469397,34.024937,49.179619,10.0,0.0,,,,,,,,,,,,,,,3.0,0.028694804047309008
4524,1511116385.998785,-118.469397,34.024937,48.902763,10.0,0.0,,,,,,,,,,,,,,,3.0,0.013942495604237583
4549,1511116386.998785,-118.469397,34.024937,48.691154,10.0,0.0,,,,,,,,,,,,,,,3.0,0.08752823059174913
4576,1511116387.998785,-118.46941100000001,34.02494,48.585685999999995,10.0,0.93,,,,,,,,,,,,,,,3.0,0.03352402153052257
4603,1511116388.998784,-118.46941899999999,34.024933000000004,49.286491,10.0,1.67,,,,,,,,,,,,,,,4.0,0.04076786028656551
4631,1511116389.998784,-118.469445,34.024925,48.642204,10.0,2.6,,,,,,,,,,,,,,,3.0,0.05259862195123014
4658,1511116390.998785,-118.469475,34.024921,48.355765999999996,10.0,3.1,,,,,,,,,,,,,,,3.0,0.10008777762556184
4695,1511116391.998785,-118.469504,34.024924,47.758965,10.0,2.94,,,,,,,,,,,,,,,3.0,0.15243855991379013
4734,1511116392.998785,-118.469545,34.024936,47.696220000000004,10.0,4.38,,,,,,,,,,,,,,,4.0,0.1543705808558838
4771,1511116393.998785,-118.469606,34.024967,47.126518,10.0,5.28,,,,,,,,,,,,,,,3.0,0.12137508092454578
4805,1511116394.998784,-118.469676,34.025006,46.967094,10.0,6.16,,,,,,,,,,,,,,,3.0,0.09359688054894583
4839,1511116395.998785,-118.46974499999999,34.025055,46.501305,10.0,8.41,,,,,,,,,,,,,,,3.0,0.10730045426437164
4868,1511116396.998785,-118.46981000000001,34.025114,46.335381,10.0,9.79,,,,,,,,,,,,,,,3.0,0.1741714151137211
4895,1511116397.998784,-118.46988400000001,34.025189000000005,46.749443,10.0,10.03,,,,,,,,,,,,,,,4.0,0.22757096505491964
4922,1511116398.998785,-118.469959,34.025267,46.8937,10.0,9.85,,,,,,,,,,,,,,,4.0,0.24087384024551078
4948,1511116399.998784,-118.470027,34.025332,46.821587,10.0,9.61,,,,,,,,,,,,,,,4.0,0.2766134170714366
4976,1511116400.998784,-118.470095,34.025392,46.637535,10.0,8.43,,,,,,,,,,,,,,,4.0,0.31066044437248336
5002,1511116401.998785,-118.47016599999999,34.025446,46.364677,10.0,6.91,,,,,,,,,,,,,,,3.0,0.3574425721674204
5034,1511116402.998784,-118.47021000000001,34.025488,45.961388,10.0,5.45,,,,,,,,,,,,,,,4.0,0.2931842063371719
5076,1511116403.998785,-118.47023100000001,34.025525,46.152458,10.0,4.12,,,,,,,,,,,,,,,3.0,0.26140210230810834
5120,1511116404.998785,-118.47023899999999,34.025557,46.551109000000004,10.0,3.72,,,,,,,,,,,,,,,3.0,0.3165141035703343
5160,1511116405.998785,-118.470226,34.025591,46.466667,10.0,3.92,,,,,,,,,,,,,,,3.0,0.35186123630304705
5202,1511116406.998785,-118.470178,34.025645000000004,45.161674,10.0,6.17,,,,,,,,,,,,,,,3.0,0.39179090628823476
5236,1511116407.998784,-118.47013100000001,34.025702,44.894432,10.0,7.4,,,,,,,,,,,,,,,3.0,0.21701132219506633
5264,1511116408.998785,-118.470079,34.025753,43.513634,10.0,7.29,,,,,,,,,,,,,,,3.0,0.29896497157705837
5291,1511116409.998785,-118.470037,34.025786,46.280418,10.0,5.81,,,,,,,,,,,,,,,3.0,0.20323211720565998
5319,1511116410.998785,-118.46998500000001,34.025825,46.738457000000004,10.0,5.61,,,,,,,,,,,,,,,3.0,0.20033883547547193
5346,1511116411.998785,-118.46993400000001,34.025862,46.558647,10.0,6.18,,,,,,,,,,,,,,,4.0,0.16532926186257876
5376,1511116412.998785,-118.469872,34.025906,47.149498,10.0,6.97,,,,,,,,,,,,,,,3.0,0.18137634524693952
5402,1511116413.998785,-118.46981699999999,34.025946999999995,47.882133,10.0,7.32,,,,,,,,,,,,,,,3.0,0.1694987551166347
5428,1511116414.998785,-118.46975800000001,34.025995,47.97448,10.0,7.32,,,,,,,,,,,,,,,3.0,0.17314053006950494
5456,1511116415.998785,-118.469707,34.026037,48.189873,10.0,6.97,,,,,,,,,,,,,,,3.0,0.19213310552697763
5482,1511116416.998784,-118.46965800000001,34.026076,48.236015,10.0,5.8,,,,,,,,,,,,,,,4.0,0.15353332673039324
5509,1511116417.998785,-118.46961599999999,34.026111,48.207939,10.0,5.19,,,,,,,,,,,,,,,4.0,0.07195415278015022
5536,1511116418.998784,-118.469567,34.026140999999996,48.411736,10.0,5.61,,,,,,,,,,,,,,,4.0,0.10259026667477335
5564,1511116419.998784,-118.469518,34.026177000000004,48.823235,10.0,5.95,,,,,,,,,,,,,,,3.0,0.1030118678886725
5591,1511116420.998784,-118.46947,34.026212,48.739433,10.0,5.8,,,,,,,,,,,,,,,4.0,0.27772462329847036
5621,1511116421.998786,-118.46943600000002,34.026249,48.5299,10.0,5.16,,,,,,,,,,,,,,,3.0,0.1932650738242206
5648,1511116422.998785,-118.469398,34.026269,48.608757000000004,10.0,3.78,,,,,,,,,,,,,,,3.0,0.08785023212874159
5674,1511116423.998785,-118.46936699999999,34.026288,49.537040999999995,10.0,3.73,,,,,,,,,,,,,,,3.0,0.08354160587602051
5701,1511116424.998785,-118.46933899999999,34.026312,49.355339,10.0,4.11,,,,,,,,,,,,,,,3.0,0.08363468975357259
5729,1511116425.998785,-118.469305,34.026339,49.524406,10.0,3.99,,,,,,,,,,,,,,,3.0,0.12107402813645284
5757,1511116426.998785,-118.46927,34.026365999999996,49.619316,10.0,4.88,,,,,,,,,,,,,,,3.0,0.13556070057952735
5782,1511116427.998785,-118.469228,34.026403,49.348991,10.0,6.03,,,,,,,,,,,,,,,3.0,0.08656597691601113
5811,1511116428.998784,-118.469174,34.026445,49.629082000000004,10.0,6.67,,,,,,,,,,,,,,,3.0,0.10180746075042187
5838,1511116429.998785,-118.46911499999999,34.026487,49.492058,10.0,6.74,,,,,,,,,,,,,,,3.0,0.12540066497697266
5866,1511116430.998785,-118.46906100000001,34.026531,49.234367,10.0,6.98,,,,,,,,,,,,,,,3.0,0.09796429124085802
5892,1511116431.998784,-118.469003,34.026576,48.877373,10.0,7.73,,,,,,,,,,,,,,,3.0,0.10785110181561659
5919,1511116432.998785,-118.46894099999999,34.026631,48.975883,10.0,8.66,,,,,,,,,,,,,,,3.0,0.14037912547246026
5945,1511116433.998785,-118.468868,34.026691,48.688774,10.0,9.74,,,,,,,,,,,,,,,3.0,0.1606630749685908
5973,1511116434.998785,-118.46878999999998,34.026754,48.736259000000004,10.0,10.14,,,,,,,,,,,,,,,3.0,0.16568526618034699
5999,1511116435.998785,-118.46870700000001,34.026817,48.785942,10.0,10.69,,,,,,,,,,,,,,,4.0,0.21731184605848203
6027,1511116436.998785,-118.468621,34.026884,48.806571999999996,10.0,10.91,,,,,,,,,,,,,,,3.0,0.10748409190287901
6054,1511116437.998785,-118.46853999999999,34.026947,48.751701000000004,10.0,10.2,,,,,,,,,,,,,,,3.0,0.1516203842819728
6082,1511116438.998785,-118.46846200000002,34.027008,48.568047,10.0,9.18,,,,,,,,,,,,,,,3.0,0.13887594230498554
6108,1511116439.998785,-118.46839299999999,34.027059,48.774834000000006,10.0,7.79,,,,,,,,,,,,,,,3.0,0.1364441028969683
6134,1511116440.998784,-118.468337,34.0271,48.553154,10.0,6.33,,,,,,,,,,,,,,,4.0,0.16903776387194303
6162,1511116441.998785,-118.46828500000001,34.02713,49.5075,10.0,4.42,,,,,,,,,,,,,,,3.0,0.07689827143943434
6189,1511116442.998784,-118.468253,34.02715,49.604362,10.0,2.34,,,,,,,,,,,,,,,4.0,0.11198162317451801
6217,1511116443.998785,-118.468236,34.027162,49.525749,10.0,1.48,,,,,,,,,,,,,,,4.0,0.08192575343578712
6252,1511116444.998785,-118.468222,34.027174,49.267326000000004,10.0,2.54,,,,,,,,,,,,,,,4.0,0.07921625328144144
6284,1511116445.998785,-118.468198,34.027186,49.261528000000006,10.0,2.82,,,,,,,,,,,,,,,4.0,0.07903650806945511
6314,1511116446.998785,-118.468177,34.027198,49.153496000000004,10.0,2.63,,,,,,,,,,,,,,,3.0,0.07669675457455762
6351,1511116447.998786,-118.468152,34.027215999999996,49.985222,10.0,2.92,,,,,,,,,,,,,,,4.0,0.19103632186599007
6394,1511116448.998785,-118.46814099999999,34.027238,50.73925,10.0,2.84,,,,,,,,,,,,,,,4.0,0.13952539542258244
6440,1511116449.998785,-118.46814199999999,34.027260999999996,49.7705,10.0,2.37,,,,,,,,,,,,,,,3.0,0.08811609435359777
6487,1511116450.998785,-118.46816299999999,34.027277000000005,50.298454,10.0,2.89,,,,,,,,,,,,,,,4.0,0.11886706787931951
6533,1511116451.998784,-118.468189,34.027294,50.222343,10.0,3.22,,,,,,,,,,,,,,,4.0,0.10232079541775574
6579,1511116452.998785,-118.46822399999999,34.027288,50.15667,10.0,3.65,,,,,,,,,,,,,,,3.0,0.06592119704731758
6623,1511116453.998785,-118.46825600000001,34.027265,50.192924,10.0,4.61,,,,,,,,,,,,,,,4.0,0.08456013124148636
6657,1511116454.998785,-118.46829699999999,34.027229,50.195793,10.0,6.12,,,,,,,,,,,,,,,4.0,0.08423401451519075
6687,1511116455.998785,-118.46833500000001,34.02718,49.518547,10.0,6.91,,,,,,,,,,,,,,,4.0,0.27061872366370315
6717,1511116456.998785,-118.468382,34.027128000000005,49.58886,10.0,8.15,,,,,,,,,,,,,,,4.0,0.14993262413048278
6747,1511116457.998784,-118.46843999999999,34.027076,49.286246999999996,10.0,8.37,,,,,,,,,,,,,,,4.0,0.1129171342922509
6776,1511116458.998785,-118.468501,34.027041,49.504326,10.0,7.93,,,,,,,,,,,,,,,4.0,0.12840747677003694
6801,1511116459.998785,-118.46857,34.026992,49.287956,10.0,8.25,,,,,,,,,,,,,,,3.0,0.10556652271159195
6829,1511116460.998784,-118.468632,34.026941,49.559502,10.0,8.11,,,,,,,,,,,,,,,4.0,0.11799707918735353
6857,1511116461.998784,-118.46869299999999,34.026891,49.384636,10.0,8.04,,,,,,,,,,,,,,,4.0,0.11702523281772308
6884,1511116462.998784,-118.468756,34.026838,49.658379,10.0,8.04,,,,,,,,,,,,,,,3.0,0.08378023033036576
6909,1511116463.998785,-118.46882,34.026788,49.603386,10.0,8.12,,,,,,,,,,,,,,,3.0,0.11612829305526869
6936,1511116464.998784,-118.46888700000001,34.026732,49.491997,10.0,8.38,,,,,,,,,,,,,,,4.0,0.22495516277219518
6964,1511116465.998785,-118.468953,34.026682,49.153862,10.0,8.17,,,,,,,,,,,,,,,4.0,0.23780029846698525
6990,1511116466.998785,-118.46901799999999,34.026628,49.424248,10.0,8.17,,,,,,,,,,,,,,,4.0,0.170164984085412
7017,1511116467.998785,-118.46907900000001,34.026575,49.320060999999995,10.0,8.07,,,,,,,,,,,,,,,3.0,0.19320731603524646
7044,1511116468.998786,-118.46914199999999,34.026524,49.346610999999996,10.0,8.03,,,,,,,,,,,,,,,3.0,0.19717054304642068
7071,1511116469.998785,-118.469205,34.026472,49.835685999999995,10.0,8.25,,,,,,,,,,,,,,,3.0,0.22258071480636216
7098,1511116470.998785,-118.469273,34.026429,49.239554999999996,10.0,8.15,,,,,,,,,,,,,,,3.0,0.2530613042965476
7125,1511116471.998785,-118.469333,34.026376,49.427116,10.0,8.2,,,,,,,,,,,,,,,4.0,0.13121492696320788
7151,1511116472.998784,-118.469396,34.026326,49.717339,10.0,7.9,,,,,,,,,,,,,,,4.0,0.15261116436525746
7177,1511116473.998785,-118.46946799999999,34.026265,50.481377,10.0,8.93,,,,,,,,,,,,,,,3.0,0.15258364545641107
7205,1511116474.998785,-118.46953899999998,34.026205,50.990044,10.0,9.98,,,,,,,,,,,,,,,3.0,0.08453643355395284
7231,1511116475.998785,-118.46961999999999,34.026143,51.15789,10.0,10.16,,,,,,,,,,,,,,,3.0,0.12996584726161958
7260,1511116476.998785,-118.469705,34.026088,50.71154,10.0,10.09,,,,,,,,,,,,,,,3.0,0.1792466692315777
7288,1511116477.998785,-118.46978899999999,34.02603,51.127068,10.0,10.02,,,,,,,,,,,,,,,3.0,0.159024054525424
7315,1511116478.998785,-118.46985900000001,34.025974,50.844291999999996,10.0,9.58,,,,,,,,,,,,,,,3.0,0.1516571630737004
7341,1511116479.998785,-118.469936,34.025918,50.311394,10.0,9.43,,,,,,,,,,,,,,,3.0,0.17621071738192753
7368,1511116480.998786,-118.47000700000001,34.025862,50.336784,10.0,8.7,,,,,,,,,,,,,,,3.0,0.18203850847969658
7394,1511116481.998785,-118.470072,34.025814000000004,50.561516,10.0,7.53,,,,,,,,,,,,,,,4.0,0.1575151832693755
7422,1511116482.998785,-118.47013899999999,34.025762,49.912468,10.0,6.73,,,,,,,,,,,,,,,3.0,0.11954127527946397
7448,1511116483.998785,-118.470188,34.025727,50.290946999999996,10.0,5.36,,,,,,,,,,,,,,,4.0,0.10094000630530955
7475,1511116484.998785,-118.470223,34.025701,50.071892,10.0,3.64,,,,,,,,,,,,,,,3.0,0.037559616484125674
7501,1511116485.998785,-118.470247,34.025682,50.108208000000005,10.0,2.45,,,,,,,,,,,,,,,4.0,0.045161268175827066
7529,1511116486.998785,-118.470258,34.025673,50.109367,10.0,0.89,,,,,,,,,,,,,,,4.0,0.0248250073096986
7556,1511116487.998784,-118.470258,34.025673,49.811577,10.0,0.0,,,,,,,,,,,,,,,4.0,0.036583178961843245
7583,1511116488.998784,-118.470258,34.025673,49.555717,10.0,0.0,,,,,,,,,,,,,,,4.0,0.015117589171261872
7610,1511116489.998784,-118.470258,34.025673,49.346245,10.0,0.0,,,,,,,,,,,,,,,4.0,0.012416317464939583
7636,1511116490.998784,-118.470258,34.025673,49.503532,10.0,0.0,,,,,,,,,,,,,,,4.0,0.010855509911195603
7662,1511116491.998784,-118.470258,34.025673,49.596794,10.0,0.0,,,,,,,,,,,,,,,4.0,0.010312360190700412
7688,1511116492.998784,-118.470258,34.025673,49.618156,10.0,0.0,,,,,,,,,,,,,,,4.0,0.01181816595019646
7714,1511116493.998785,-118.470258,34.025673,49.566399,10.0,0.0,,,,,,,,,,,,,,,4.0,0.014320416624611356
7740,1511116494.998785,-118.470258,34.025673,49.621025,10.0,0.0,,,,,,,,,,,,,,,4.0,0.013165128070801835
7766,1511116495.998785,-118.470258,34.025673,49.529961,10.0,0.0,,,,,,,,,,,,,,,4.0,0.012134673611230797
7792,1511116496.998784,-118.470258,34.025673,49.502007,10.0,0.0,,,,,,,,,,,,,,,4.0,0.01120654450093412
7818,1511116497.998785,-118.470258,34.025673,49.444266999999996,10.0,0.0,,,,,,,,,,,,,,,4.0,0.01118701600642872
7844,1511116498.998785,-118.470258,34.025673,49.216179,10.0,0.0,,,,,,,,,,,,,,,4.0,0.011988903649670217
7870,1511116499.998785,-118.470258,34.025673,49.09655,10.0,0.0,,,,,,,,,,,,,,,4.0,0.010822606129197214
7896,1511116500.998785,-118.470258,34.025673,49.180656,10.0,0.0,,,,,,,,,,,,,,,4.0,0.009954600404128851
7922,1511116501.998785,-118.470258,34.025673,49.193047,10.0,0.0,,,,,,,,,,,,,,,4.0,0.010472201569821989
7948,1511116502.998785,-118.470258,34.025673,49.47509,10.0,0.0,,,,,,,,,,,,,,,4.0,0.01078658097895985
7974,1511116503.998785,-118.470258,34.025673,49.549065,10.0,0.0,,,,,,,,,,,,,,,4.0,0.010482459556498404
8000,1511116504.998785,-118.470258,34.025673,49.622246000000004,10.0,0.0,,,,,,,,,,,,,,,4.0,0.01056417767726254
8026,1511116505.998786,-118.470258,34.025673,49.614922,10.0,0.0,,,,,,,,,,,,,,,4.0,0.010623797151968857
8052,1511116506.998785,-118.470258,34.025673,49.684319,10.0,0.0,,,,,,,,,,,,,,,4.0,0.010888445509374078
8078,1511116507.998785,-118.470258,34.025673,49.5476,10.0,0.0,,,,,,,,,,,,,,,4.0,0.010378520858541317
8104,1511116508.998784,-118.470258,34.025673,49.316399,10.0,0.0,,,,,,,,,,,,,,,4.0,0.01028155043022379
8130,1511116509.998785,-118.470258,34.025673,49.536369,10.0,0.0,,,,,,,,,,,,,,,4.0,0.010249902814570238
8156,1511116510.998784,-118.470258,34.025673,49.712639,10.0,0.0,,,,,,,,,,,,,,,4.0,0.010430478763976157
8183,1511116511.998786,-118.470258,34.025673,49.67852,10.0,0.0,,,,,,,,,,,,,,,4.0,0.010108285875240805
8208,1511116512.998785,-118.470258,34.025673,49.642936999999996,10.0,0.0,,,,,,,,,,,,,,,4.0,0.010704425497947952
8235,1511116513.998785,-118.470258,34.025673,49.607903,10.0,0.0,,,,,,,,,,,,,,,4.0,0.010782294462724216
8261,1511116514.998785,-118.470258,34.025673,49.665581,10.0,0.0,,,,,,,,,,,,,,,4.0,0.0109095026339716
8285,1511116515.998783,-118.470258,34.025673,49.686638,10.0,0.0,,,,,,,,,,,,,,,4.0,0.010431614952537988
8314,1511116516.998785,-118.470258,34.025673,49.864189,10.0,0.0,,,,,,,,,,,,,,,4.0,0.01097465662198946
8341,1511116517.998785,-118.470258,34.025673,49.127129,10.0,0.0,,,,,,,,,,,,,,,4.0,0.010702594757375488
8365,1511116518.998785,-118.470258,34.025673,48.939873,10.0,0.0,,,,,,,,,,,,,,,4.0,0.010878494990878148
8390,1511116519.998785,-118.470258,34.025673,48.757195,10.0,0.0,,,,,,,,,,,,,,,4.0,0.010728250540646628
8416,1511116520.998785,-118.470258,34.025673,48.891411,10.0,0.0,,,,,,,,,,,,,,,4.0,0.010107366478816892
8442,1511116521.998785,-118.470258,34.025673,48.525504999999995,10.0,0.0,,,,,,,,,,,,,,,4.0,0.010249342346325593
8469,1511116522.998784,-118.470258,34.025673,48.587578,10.0,0.0,,,,,,,,,,,,,,,4.0,0.011410519732661573
8495,1511116523.998784,-118.470258,34.025673,48.506645,10.0,0.0,,,,,,,,,,,,,,,4.0,0.011701016802771268
8521,1511116524.998785,-118.470258,34.025673,48.60717,10.0,0.0,,,,,,,,,,,,,,,4.0,0.010852126908548832
8547,1511116525.998785,-118.470258,34.025673,48.245841999999996,10.0,0.0,,,,,,,,,,,,,,,4.0,0.0107179217143154
8574,1511116526.998785,-118.470258,34.025673,48.457085,10.0,0.0,,,,,,,,,,,,,,,4.0,0.010413199829057536
8600,1511116527.998784,-118.470258,34.025673,49.599540999999995,10.0,0.0,,,,,,,,,,,,,,,4.0,0.010141713579400595
8625,1511116528.998785,-118.470258,34.025673,48.481865,10.0,0.0,,,,,,,,,,,,,,,4.0,0.010211979793946509
8650,1511116529.998785,-118.470258,34.025673,48.68261,10.0,0.0,,,,,,,,,,,,,,,4.0,0.010806326238308569
8677,1511116530.998785,-118.470258,34.025673,48.808708,10.0,0.0,,,,,,,,,,,,,,,4.0,0.010576014164240817
8705,1511116531.998784,-118.470258,34.025673,49.504936,10.0,0.0,,,,,,,,,,,,,,,4.0,0.010502786972437827
8732,1511116532.998785,-118.470258,34.025673,49.453423,10.0,0.0,,,,,,,,,,,,,,,4.0,0.010470916246883961
8757,1511116533.998784,-118.470258,34.025673,49.472282,10.0,0.0,,,,,,,,,,,,,,,4.0,0.010676060982745754
8783,1511116534.998785,-118.470258,34.025673,49.54528,10.0,0.0,,,,,,,,,,,,,,,4.0,0.010558402156650054
8809,1511116535.998785,-118.470258,34.025673,49.554192,10.0,0.0,,,,,,,,,,,,,,,4.0,0.010845771074905704
8835,1511116536.998784,-118.470258,34.025673,49.551689,10.0,0.0,,,,,,,,,,,,,,,4.0,0.01083825713254553
8862,1511116537.998785,-118.470258,34.025673,49.539543,10.0,0.0,,,,,,,,,,,,,,,4.0,0.010451075803840939
8886,1511116538.998785,-118.470258,34.025673,49.558525,10.0,0.0,,,,,,,,,,,,,,,4.0,0.010792028933490112
8913,1511116539.998784,-118.470258,34.025673,49.604424,10.0,0.0,,,,,,,,,,,,,,,4.0,0.01058816681468346
8939,1511116540.998785,-118.470258,34.025673,49.585991,10.0,0.0,,,,,,,,,,,,,,,4.0,0.010557911790410246
8965,1511116541.998784,-118.470258,34.025673,49.738579,10.0,0.0,,,,,,,,,,,,,,,4.0,0.010215377339234222
8991,1511116542.998784,-118.470258,34.025673,49.694571999999994,10.0,0.0,,,,,,,,,,,,,,,4.0,0.010449667094890666
9018,1511116543.998785,-118.470258,34.025673,49.741692,10.0,0.0,,,,,,,,,,,,,,,4.0,0.01081797094011768
9043,1511116544.998784,-118.470258,34.025673,49.775871,10.0,0.0,,,,,,,,,,,,,,,4.0,0.011886922419697523
9069,1511116545.998785,-118.470257,34.025641,49.72509,10.0,0.18,,,,,,,,,,,,,,,4.0,0.06137123306897846
9096,1511116546.998785,-118.47025900000001,34.025639,49.793938,10.0,0.48,,,,,,,,,,,,,,,4.0,0.058332357649918794
9124,1511116547.998785,-118.47027299999999,34.025628999999995,49.77459,10.0,2.18,,,,,,,,,,,,,,,4.0,0.0919958736728063
9153,1511116548.998785,-118.470294,34.02561,49.77404,10.0,3.59,,,,,,,,,,,,,,,4.0,0.08913818517615227
9180,1511116549.998785,-118.47033200000001,34.025584,49.843742,10.0,5.02,,,,,,,,,,,,,,,4.0,0.08985596267455614
9206,1511116550.998785,-118.470377,34.025546999999996,50.559929,10.0,6.45,,,,,,,,,,,,,,,4.0,0.1527287101548564
9235,1511116551.998784,-118.470432,34.025507,50.811211,10.0,7.23,,,,,,,,,,,,,,,4.0,0.1451337811494462
9265,1511116552.998785,-118.47048899999999,34.025458,50.996452000000005,10.0,7.71,,,,,,,,,,,,,,,4.0,0.20898442575760204
9291,1511116553.998785,-118.47055,34.025414000000005,50.486626,10.0,8.26,,,,,,,,,,,,,,,4.0,0.18288627559460444
9317,1511116554.998785,-118.47061299999999,34.025358000000004,51.911064,10.0,8.65,,,,,,,,,,,,,,,4.0,0.13076048442563115
9343,1511116555.998785,-118.470677,34.025301,48.605339,10.0,9.28,,,,,,,,,,,,,,,3.0,0.15480735629621337
9370,1511116556.998785,-118.470751,34.025239,48.841057,10.0,9.89,,,,,,,,,,,,,,,4.0,0.1476197505711234
9399,1511116557.998784,-118.47081999999999,34.025175,48.854118,10.0,10.06,,,,,,,,,,,,,,,3.0,0.17953334281762331
9425,1511116558.998785,-118.470899,34.025107,49.333977000000004,10.0,10.51,,,,,,,,,,,,,,,4.0,0.19974480441606698
9454,1511116559.998784,-118.470984,34.025037,51.726799,10.0,10.74,,,,,,,,,,,,,,,4.0,0.1766961407221266
9481,1511116560.998784,-118.471066,34.02497,52.172844,10.0,10.75,,,,,,,,,,,,,,,4.0,0.17697647938039504
9510,1511116561.998785,-118.471153,34.024899,52.759758,10.0,11.15,,,,,,,,,,,,,,,4.0,0.2510607638466236
9536,1511116562.998785,-118.47123700000002,34.024828,54.033012,10.0,11.03,,,,,,,,,,,,,,,4.0,0.20423693354830377
9563,1511116563.998785,-118.471327,34.024755,50.976310999999995,10.0,10.99,,,,,,,,,,,,,,,3.0,0.21704977593611577
9589,1511116564.998785,-118.47141299999998,34.024685,51.24865,10.0,11.09,,,,,,,,,,,,,,,4.0,0.12094567118225477
9617,1511116565.998785,-118.4715,34.024615999999995,51.315788,10.0,10.9,,,,,,,,,,,,,,,4.0,0.13471044696369855
9645,1511116566.998785,-118.471581,34.024549,51.019707000000004,10.0,10.6,,,,,,,,,,,,,,,4.0,0.11542963330886742
9673,1511116567.998785,-118.47166299999999,34.024483000000004,50.052238,10.0,10.37,,,,,,,,,,,,,,,3.0,0.13665257062461322
9702,1511116568.998784,-118.471741,34.02442,50.301201,10.0,10.27,,,,,,,,,,,,,,,4.0,0.181910341708707
9730,1511116569.998785,-118.47182600000001,34.024353000000005,52.359306,10.0,10.31,,,,,,,,,,,,,,,4.0,0.18712534012605012
9757,1511116570.998785,-118.471898,34.024289,51.793388,10.0,9.84,,,,,,,,,,,,,,,4.0,0.16571808634715648
9789,1511116571.998784,-118.471975,34.024229,52.559684999999995,10.0,9.69,,,,,,,,,,,,,,,4.0,0.23398960291026186
9824,1511116572.998785,-118.472067,34.02418,48.24688,10.0,10.05,,,,,,,,,,,,,,,3.0,0.22414862123868276
9859,1511116573.998785,-118.47216999999999,34.024144,48.506279,10.0,10.28,,,,,,,,,,,,,,,4.0,0.09198031965586151
9889,1511116574.998785,-118.472282,34.024116,48.949883,10.0,10.65,,,,,,,,,,,,,,,4.0,0.06696075212985879
9918,1511116575.998785,-118.472397,34.024091,48.315483,10.0,10.95,,,,,,,,,,,,,,,4.0,0.09511118807163378
9945,1511116576.998784,-118.47251599999998,34.024066,48.512688,10.0,11.05,,,,,,,,,,,,,,,4.0,0.13381100959274173
9973,1511116577.998785,-118.472622,34.024041,47.881828000000006,10.0,10.1,,,,,,,,,,,,,,,4.0,0.2065591330493666
10005,1511116578.998785,-118.47272,34.024031,47.719902000000005,10.0,8.62,,,,,,,,,,,,,,,4.0,0.2635905372196898
10044,1511116579.998784,-118.47280400000001,34.024037,48.186821,10.0,7.51,,,,,,,,,,,,,,,4.0,0.20984882299083354
10084,1511116580.998785,-118.472871,34.024059,46.250114,10.0,7.14,,,,,,,,,,,,,,,3.0,0.1725375205274743
10123,1511116581.998785,-118.47294199999999,34.024103000000004,46.599571000000005,10.0,8.31,,,,,,,,,,,,,,,4.0,0.12242877725137236
10152,1511116582.998784,-118.47301499999999,34.024161,47.342155,10.0,9.63,,,,,,,,,,,,,,,4.0,0.11491765522177583
10180,1511116583.998784,-118.47308600000001,34.024224,46.117302,10.0,10.17,,,,,,,,,,,,,,,4.0,0.0975580082590658
10207,1511116584.998785,-118.473161,34.02429,45.938164,10.0,10.09,,,,,,,,,,,,,,,4.0,0.16889630706270037
10235,1511116585.998785,-118.47323899999999,34.024356,45.798790000000004,10.0,9.98,,,,,,,,,,,,,,,4.0,0.15681751949888892
10260,1511116586.998785,-118.473312,34.024423,46.231621000000004,10.0,9.42,,,,,,,,,,,,,,,4.0,0.09372646416224854
10288,1511116587.998785,-118.473378,34.024485,46.325188,10.0,8.84,,,,,,,,,,,,,,,3.0,0.15986869402362502
10315,1511116588.998785,-118.473444,34.024544,46.48922,10.0,8.63,,,,,,,,,,,,,,,4.0,0.18065732664719075
10343,1511116589.998784,-118.47351100000002,34.024599,47.471428,10.0,8.66,,,,,,,,,,,,,,,4.0,0.23279199716971868
10374,1511116590.998785,-118.473576,34.024657,47.388145,10.0,9.06,,,,,,,,,,,,,,,4.0,0.2357735200381819
10406,1511116591.998784,-118.473643,34.024718,46.960106,10.0,9.27,,,,,,,,,,,,,,,4.0,0.13147235756351772
10432,1511116592.998785,-118.47371399999999,34.024778999999995,47.36895,10.0,9.42,,,,,,,,,,,,,,,4.0,0.1573381561574582
10458,1511116593.998785,-118.47378400000001,34.024842,46.254539,10.0,10.03,,,,,,,,,,,,,,,3.0,0.11525923699103532
10484,1511116594.998784,-118.47385600000001,34.024909,46.735069,10.0,9.96,,,,,,,,,,,,,,,4.0,0.08228506919885259
10512,1511116595.998816,-118.473929,34.024972999999996,47.992424,10.0,9.59,,,,,,,,,,,,,,,4.0,0.135087580655003
10538,1511116596.998784,-118.473996,34.025033,47.375206,10.0,8.78,,,,,,,,,,,,,,,3.0,0.0871188327415597
10565,1511116597.998785,-118.474055,34.025088000000004,46.716301,10.0,7.66,,,,,,,,,,,,,,,3.0,0.11674683279662774
10592,1511116598.998785,-118.474107,34.025135999999996,46.662498,10.0,6.58,,,,,,,,,,,,,,,3.0,0.09376305639590016
10619,1511116599.998784,-118.474151,34.025171,46.966972,10.0,5.14,,,,,,,,,,,,,,,4.0,0.0642375593914999
10646,1511116600.998785,-118.474179,34.025199,47.491814,10.0,3.53,,,,,,,,,,,,,,,4.0,0.03946693089426408
10673,1511116601.998784,-118.47419599999999,34.025214,47.525504999999995,10.0,1.59,,,,,,,,,,,,,,,4.0,0.04605470352922876
10701,1511116602.998784,-118.474205,34.025221,47.423943,10.0,0.66,,,,,,,,,,,,,,,3.0,0.022578886296353202
10729,1511116603.998785,-118.474209,34.025224,47.347984000000004,10.0,0.28,,,,,,,,,,,,,,,4.0,0.01999637974033581
10755,1511116604.998785,-118.474209,34.025224,47.394341,10.0,0.0,,,,,,,,,,,,,,,4.0,0.01403267973701415
10782,1511116605.998785,-118.474209,34.025224,47.316948,10.0,0.0,,,,,,,,,,,,,,,4.0,0.012101455741675805
10808,1511116606.998785,-118.474209,34.025224,47.256462,10.0,0.0,,,,,,,,,,,,,,,4.0,0.010129060506427933
10834,1511116607.998785,-118.474209,34.025224,47.231712,10.0,0.0,,,,,,,,,,,,,,,4.0,0.010592865055305265
10860,1511116608.998784,-118.474209,34.025224,47.27346,10.0,0.0,,,,,,,,,,,,,,,4.0,0.010663336679605897
10886,1511116609.998785,-118.474209,34.025224,47.337914000000005,10.0,0.0,,,,,,,,,,,,,,,4.0,0.010396379284273316
10910,1511116610.998785,-118.474209,34.025224,46.107048,10.0,0.0,,,,,,,,,,,,,,,4.0,0.011764183796563816
10936,1511116611.998785,-118.474209,34.025224,46.165184,10.0,0.0,,,,,,,,,,,,,,,4.0,0.012693047404078268
10962,1511116612.998785,-118.474209,34.025224,46.196922,10.0,0.0,,,,,,,,,,,,,,,3.0,0.010944633101166341
10989,1511116613.998785,-118.474209,34.025224,46.381187,10.0,0.0,,,,,,,,,,,,,,,4.0,0.010763971389225342
11015,1511116614.998785,-118.474209,34.025224,47.375206,10.0,0.0,,,,,,,,,,,,,,,4.0,0.010200293721758636
11042,1511116615.998784,-118.474209,34.025224,47.432426,10.0,0.0,,,,,,,,,,,,,,,4.0,0.01048502547451081
11068,1511116616.998785,-118.474209,34.025224,47.423576000000004,10.0,0.0,,,,,,,,,,,,,,,3.0,0.010352149712068265
11094,1511116617.998785,-118.474209,34.025224,46.462425,10.0,0.0,,,,,,,,,,,,,,,3.0,0.010488150140658493
11119,1511116618.998785,-118.474209,34.025224,46.544914,10.0,0.0,,,,,,,,,,,,,,,4.0,0.08441868021918729
11144,1511116619.998784,-118.47423,34.025238,46.669518,10.0,0.5,,,,,,,,,,,,,,,3.0,0.07745606158802326
11170,1511116620.998784,-118.47423899999998,34.025245,46.786064,10.0,1.58,,,,,,,,,,,,,,,4.0,0.07897247144564465
11201,1511116621.998785,-118.474258,34.025261,47.338188,10.0,2.91,,,,,,,,,,,,,,,4.0,0.14545339027274728
11242,1511116622.998785,-118.474275,34.025290999999996,47.321342,10.0,3.98,,,,,,,,,,,,,,,3.0,0.21798501859982566
11281,1511116623.998785,-118.47428300000001,34.025333,47.926140000000004,10.0,4.98,,,,,,,,,,,,,,,4.0,0.19309578064859537
11317,1511116624.998785,-118.474281,34.025384,47.803093,10.0,6.12,,,,,,,,,,,,,,,4.0,0.17346162071183097
11349,1511116625.998785,-118.47426499999999,34.025456,45.825005,10.0,8.21,,,,,,,,,,,,,,,3.0,0.16687008993340144
11378,1511116626.998784,-118.47424,34.025537,45.847282,10.0,9.69,,,,,,,,,,,,,,,4.0,0.24120057492409233
11407,1511116627.998785,-118.47421000000001,34.025628999999995,47.549248,10.0,10.5,,,,,,,,,,,,,,,4.0,0.2219084353196954
11438,1511116628.998785,-118.474167,34.025718,45.484856,10.0,11.33,,,,,,,,,,,,,,,3.0,0.1878922065737387
11466,1511116629.998785,-118.47411799999999,34.025816,44.968102,10.0,11.96,,,,,,,,,,,,,,,4.0,0.21479376744972042
11497,1511116630.998785,-118.47405800000001,34.025913,48.330376,10.0,12.31,,,,,,,,,,,,,,,4.0,0.25217178767025433
11523,1511116631.998785,-118.473998,34.026004,46.437584,10.0,11.72,,,,,,,,,,,,,,,3.0,0.23342127785291913
11553,1511116632.998784,-118.473928,34.026096,46.792137,10.0,11.85,,,,,,,,,,,,,,,3.0,0.24152252272023705
11581,1511116633.999204,-118.47384699999999,34.026183,46.230553,10.0,11.76,,,,,,,,,,,,,,,3.0,0.2501071233669361
11611,1511116634.999774,-118.47376200000001,34.026269,46.353966,10.0,11.94,,,,,,,,,,,,,,,3.0,0.2642254001889177
11638,1511116635.999804,-118.473679,34.026346999999994,46.213249,10.0,11.52,,,,,,,,,,,,,,,3.0,0.25193306361256745
11668,1511116636.999824,-118.473584,34.026432,45.744254999999995,10.0,12.06,,,,,,,,,,,,,,,3.0,0.16254590795547222
11696,1511116637.999897,-118.47348600000001,34.026507,45.043205,10.0,11.71,,,,,,,,,,,,,,,3.0,0.13454035863605035
11727,1511116638.9999518,-118.47339299999999,34.026573,45.55584,10.0,11.24,,,,,,,,,,,,,,,3.0,0.15254541089573329
11755,1511116639.9999099,-118.4733,34.026638,45.887229999999995,10.0,10.62,,,,,,,,,,,,,,,3.0,0.17025963471124259
11783,1511116640.999983,-118.473207,34.02669,46.252525,10.0,9.75,,,,,,,,,,,,,,,3.0,0.15919980310146076
11811,1511116641.999891,-118.473129,34.026738,46.326225,10.0,8.46,,,,,,,,,,,,,,,3.0,0.18358297388952002
11840,1511116643.00001,-118.47305700000001,34.026778,46.096123,10.0,7.21,,,,,,,,,,,,,,,3.0,0.15065290968791983
11869,1511116643.999899,-118.473001,34.026816,45.924034000000006,10.0,6.27,,,,,,,,,,,,,,,3.0,0.14082708510242978
11898,1511116644.9999,-118.47295600000001,34.026846,45.968407,10.0,4.93,,,,,,,,,,,,,,,3.0,0.10150052313885041
11926,1511116645.999899,-118.47292,34.026866,46.226677,10.0,2.88,,,,,,,,,,,,,,,3.0,0.044329531238648384
11953,1511116646.999899,-118.472903,34.026878,45.812462,10.0,1.49,,,,,,,,,,,,,,,3.0,0.03906332812575602
11982,1511116647.9999,-118.472889,34.026883000000005,45.928185,10.0,1.04,,,,,,,,,,,,,,,3.0,0.027349556681262623
12009,1511116648.999899,-118.472881,34.026888,46.144341,10.0,0.77,,,,,,,,,,,,,,,3.0,0.01722428078092387
12036,1511116649.999899,-118.472881,34.026888,46.599174,10.0,0.0,,,,,,,,,,,,,,,3.0,0.029776587272447762
12062,1511116650.999899,-118.472881,34.026888,46.75692,10.0,0.0,,,,,,,,,,,,,,,3.0,0.012879990769552985
12088,1511116651.999899,-118.472881,34.026888,46.589958,10.0,0.0,,,,,,,,,,,,,,,3.0,0.011248422373265754
12114,1511116652.999899,-118.472881,34.026888,46.857841,10.0,0.0,,,,,,,,,,,,,,,3.0,0.010481165058346235
12141,1511116653.999899,-118.472881,34.026888,46.831352,10.0,0.0,,,,,,,,,,,,,,,3.0,0.010384662294633886
12167,1511116654.999899,-118.472881,34.026888,46.854149,10.0,0.0,,,,,,,,,,,,,,,3.0,0.010301300311545789
12193,1511116655.999899,-118.472881,34.026888,46.818077,10.0,0.0,,,,,,,,,,,,,,,3.0,0.010599796481054968
12219,1511116656.999898,-118.472881,34.026888,46.648247,10.0,0.0,,,,,,,,,,,,,,,3.0,0.010131289371455183
12245,1511116657.999899,-118.472881,34.026888,46.629630999999996,10.0,0.0,,,,,,,,,,,,,,,3.0,0.01021160451659312
12271,1511116658.999899,-118.472881,34.026888,46.466118,10.0,0.0,,,,,,,,,,,,,,,3.0,0.010517080903117582
12297,1511116659.999898,-118.472881,34.026888,46.468224,10.0,0.0,,,,,,,,,,,,,,,3.0,0.010542205342367592
12322,1511116660.999899,-118.472881,34.026888,46.624718,10.0,0.0,,,,,,,,,,,,,,,3.0,0.010289152675891386
12349,1511116661.999899,-118.472881,34.026888,46.523491,10.0,0.0,,,,,,,,,,,,,,,3.0,0.010402541504629619
12374,1511116662.999899,-118.472881,34.026888,46.472679,10.0,0.0,,,,,,,,,,,,,,,3.0,0.010754957911885011
12401,1511116663.999899,-118.472881,34.026888,46.594658,10.0,0.0,,,,,,,,,,,,,,,3.0,0.010291145779139466
12427,1511116664.999899,-118.472881,34.026888,46.452538,10.0,0.0,,,,,,,,,,,,,,,3.0,0.010248583508414944
12453,1511116665.999899,-118.472881,34.026888,46.60125,10.0,0.0,,,,,,,,,,,,,,,3.0,0.010021930546222716
12480,1511116666.999898,-118.472881,34.026888,46.630210999999996,10.0,0.0,,,,,,,,,,,,,,,3.0,0.009584816691574948
12505,1511116667.999899,-118.472881,34.026888,46.665062,10.0,0.0,,,,,,,,,,,,,,,3.0,0.01030666731977465
12531,1511116668.999899,-118.472881,34.026888,46.630028,10.0,0.0,,,,,,,,,,,,,,,3.0,0.011153294292653876
12557,1511116669.999899,-118.472881,34.026888,46.626274,10.0,0.0,,,,,,,,,,,,,,,3.0,0.0111928266346752
12583,1511116670.999899,-118.472881,34.026888,46.491446999999994,10.0,0.0,,,,,,,,,,,,,,,3.0,0.0497639164038807
12610,1511116671.999899,-118.472875,34.026872999999995,46.70977,10.0,0.19,,,,,,,,,,,,,,,3.0,0.0461218906828016
12636,1511116672.999899,-118.472872,34.026878,46.358269,10.0,0.9,,,,,,,,,,,,,,,3.0,0.04972132361237808
12662,1511116673.999899,-118.47285500000001,34.026886,46.588553999999995,10.0,2.12,,,,,,,,,,,,,,,3.0,0.05325298129158801
12690,1511116674.999899,-118.472827,34.026897,47.34948,10.0,3.3,,,,,,,,,,,,,,,3.0,0.04839649513837949
12718,1511116675.999898,-118.47278600000001,34.026915,47.953362,10.0,4.68,,,,,,,,,,,,,,,3.0,0.1266141824390323
12746,1511116676.999899,-118.47273899999999,34.026931,48.178337,10.0,5.02,,,,,,,,,,,,,,,3.0,0.1361444769923804
12771,1511116677.999899,-118.47268999999999,34.026949,48.156609,10.0,4.9,,,,,,,,,,,,,,,3.0,0.1411740419156423
12799,1511116678.9999,-118.47263600000001,34.026973,48.441521,10.0,5.22,,,,,,,,,,,,,,,3.0,0.2268096874112634
12828,1511116679.9999,-118.47259,34.026996999999994,48.263908,10.0,4.88,,,,,,,,,,,,,,,3.0,0.2610695767016153
12865,1511116680.999899,-118.472554,34.027021999999995,48.181145,10.0,4.11,,,,,,,,,,,,,,,3.0,0.35695251575857756
12909,1511116681.999899,-118.47253500000001,34.027053,48.431328,10.0,3.82,,,,,,,,,,,,,,,4.0,0.3535125560022528
12958,1511116682.9999,-118.472546,34.027089000000004,47.969414,10.0,3.84,,,,,,,,,,,,,,,3.0,0.36293579052813996
13004,1511116683.999899,-118.472575,34.027116,47.827751,10.0,4.29,,,,,,,,,,,,,,,3.0,0.33003593164269807
13050,1511116684.999899,-118.472625,34.027127,47.562187,10.0,5.13,,,,,,,,,,,,,,,3.0,0.25410155864092576
13095,1511116685.999899,-118.47268799999999,34.027116,47.764946,10.0,6.33,,,,,,,,,,,,,,,3.0,0.199654462952319
13126,1511116686.9999,-118.47276000000001,34.027088,47.516045,10.0,7.95,,,,,,,,,,,,,,,3.0,0.14892830336386118
13156,1511116687.999899,-118.472844,34.027053,47.485527000000005,10.0,9.3,,,,,,,,,,,,,,,4.0,0.12347078179018654
13186,1511116688.999899,-118.47293700000002,34.027017,48.228081,10.0,10.44,,,,,,,,,,,,,,,3.0,0.15774127412878017
13213,1511116689.999899,-118.473041,34.026969,48.54882,10.0,11.26,,,,,,,,,,,,,,,4.0,0.17992135670490075
13242,1511116690.999899,-118.473141,34.026912,47.891594,10.0,11.87,,,,,,,,,,,,,,,3.0,0.2450485316618555
13270,1511116691.999899,-118.473253,34.026852000000005,47.912163,10.0,12.54,,,,,,,,,,,,,,,3.0,0.21841663283381524
13298,1511116692.999899,-118.47336499999999,34.026789,47.632071999999994,10.0,12.89,,,,,,,,,,,,,,,3.0,0.18661703040419186
13326,1511116693.999899,-118.473478,34.026717,47.459831,10.0,13.27,,,,,,,,,,,,,,,3.0,0.21862966693690497
13357,1511116694.999899,-118.473592,34.026638,47.132011,10.0,13.44,,,,,,,,,,,,,,,4.0,0.31618024023714164
13391,1511116695.9999,-118.47369599999999,34.026554,46.989128,10.0,13.33,,,,,,,,,,,,,,,4.0,0.19437170541553592
13420,1511116696.999899,-118.473794,34.026458,46.612755,10.0,13.7,,,,,,,,,,,,,,,3.0,0.22829293554002097
13452,1511116697.999898,-118.47388600000001,34.026353,46.489128,10.0,13.76,,,,,,,,,,,,,,,3.0,0.1809268950347029
13477,1511116698.999899,-118.473973,34.026253000000004,46.485496999999995,10.0,13.66,,,,,,,,,,,,,,,3.0,0.24016668776393985
13506,1511116699.999899,-118.474056,34.02615,46.690971000000005,10.0,13.86,,,,,,,,,,,,,,,3.0,0.22656619067266998
13535,1511116700.999899,-118.47413200000001,34.026045,46.995934000000005,10.0,13.74,,,,,,,,,,,,,,,3.0,0.23726139596933923
13565,1511116701.999899,-118.47421100000001,34.025925,46.21093,10.0,14.57,,,,,,,,,,,,,,,3.0,0.20404043973396668
13593,1511116702.999899,-118.474277,34.025805,45.946007,10.0,14.58,,,,,,,,,,,,,,,4.0,0.1459855568968314
13624,1511116703.999899,-118.474332,34.025682,45.885277,10.0,14.38,,,,,,,,,,,,,,,4.0,0.15754991546937858
13652,1511116704.999898,-118.47438500000001,34.025558000000004,45.273491,10.0,14.64,,,,,,,,,,,,,,,4.0,0.1589914663276914
13679,1511116705.999899,-118.47443200000001,34.025433,44.694725,10.0,14.65,,,,,,,,,,,,,,,4.0,0.20897464082619926
13705,1511116706.999899,-118.474475,34.025306,44.519157,10.0,14.61,,,,,,,,,,,,,,,3.0,0.14209091719778807
13733,1511116707.999899,-118.474519,34.02518,44.270164,10.0,14.55,,,,,,,,,,,,,,,4.0,0.16074525627302413
13761,1511116708.999899,-118.474566,34.025048999999996,42.723351,10.0,14.64,,,,,,,,,,,,,,,3.0,0.18649843545297343
13790,1511116709.999898,-118.474617,34.024924,41.760185,10.0,14.72,,,,,,,,,,,,,,,4.0,0.21376638241735704
13821,1511116710.999899,-118.47467900000001,34.024811,42.051414,10.0,14.5,,,,,,,,,,,,,,,3.0,0.33975970994313526
13850,1511116711.9999,-118.474724,34.024705,41.482414,10.0,12.72,,,,,,,,,,,,,,,3.0,0.34745141536053686
13877,1511116712.999899,-118.47477099999999,34.024608,41.092735,10.0,10.21,,,,,,,,,,,,,,,4.0,0.3100251223209641
13906,1511116713.999899,-118.47481100000002,34.024534,41.029259,10.0,8.12,,,,,,,,,,,,,,,4.0,0.3638048082853174
13937,1511116714.9999,-118.474841,34.024476,40.794762,10.0,5.8,,,,,,,,,,,,,,,4.0,0.2842241043400117
13967,1511116715.9999,-118.47486599999999,34.024438,40.928123,10.0,4.01,,,,,,,,,,,,,,,4.0,0.09136523041235471
13994,1511116716.999899,-118.47488500000001,34.024412,41.00634,10.0,2.56,,,,,,,,,,,,,,,4.0,0.16307300930042234
14024,1511116717.999899,-118.474901,34.024387,41.319756,10.0,3.1,,,,,,,,,,,,,,,4.0,0.15821360524520903
14065,1511116718.999899,-118.47491299999999,34.024353000000005,41.13662,10.0,4.29,,,,,,,,,,,,,,,4.0,0.15932446169969947
14109,1511116719.9999,-118.474906,34.024312,41.131645,10.0,4.78,,,,,,,,,,,,,,,4.0,0.14777249028205278
14145,1511116720.9999,-118.47488200000001,34.024266,42.034172,10.0,5.57,,,,,,,,,,,,,,,4.0,0.2223703167866885
14184,1511116721.9999,-118.474846,34.024215999999996,42.07827,10.0,7.18,,,,,,,,,,,,,,,4.0,0.21323347667977302
14217,1511116722.9999,-118.474792,34.024159000000004,42.037102000000004,10.0,8.46,,,,,,,,,,,,,,,4.0,0.090714171620498
14244,1511116723.999899,-118.474724,34.024101,42.011070000000004,10.0,9.43,,,,,,,,,,,,,,,4.0,0.07321932284400534
14272,1511116724.9999,-118.47465,34.024039,42.077202,10.0,10.22,,,,,,,,,,,,,,,3.0,0.09935803997410461
14298,1511116725.999905,-118.474571,34.023971,42.106377,10.0,10.78,,,,,,,,,,,,,,,4.0,0.10963382488730693
14327,1511116726.999899,-118.47449499999999,34.023902,42.154076,10.0,11.25,,,,,,,,,,,,,,,3.0,0.15056958291011127
14353,1511116727.9999,-118.474415,34.023835,42.289879,10.0,10.89,,,,,,,,,,,,,,,4.0,0.09704815977198701
14380,1511116728.999899,-118.474333,34.023763,42.203178,10.0,11.8,,,,,,,,,,,,,,,4.0,0.10289078754427959
14405,1511116729.999899,-118.47424299999999,34.023687,41.402245,10.0,12.74,,,,,,,,,,,,,,,4.0,0.12273840542169759
14433,1511116730.999899,-118.474145,34.0236,40.89135,10.0,13.53,,,,,,,,,,,,,,,4.0,0.22911171651589057
14459,1511116731.9999,-118.47404099999999,34.023512,41.021324,10.0,13.76,,,,,,,,,,,,,,,4.0,0.14354911694479466
14487,1511116732.999899,-118.47393100000001,34.023423,39.287498,10.0,13.67,,,,,,,,,,,,,,,4.0,0.12841508840725324
14514,1511116733.999899,-118.47382900000001,34.023334999999996,38.311546,10.0,13.41,,,,,,,,,,,,,,,4.0,0.1255542777392043
14540,1511116734.999898,-118.47373200000001,34.023251,38.061119,10.0,12.76,,,,,,,,,,,,,,,4.0,0.12272756954774192
14566,1511116735.999899,-118.473643,34.023173,37.955771999999996,10.0,11.44,,,,,,,,,,,,,,,4.0,0.15373158567286185
14594,1511116736.999899,-118.473565,34.023104,39.091026,10.0,9.22,,,,,,,,,,,,,,,3.0,0.12133176437427202
14621,1511116737.999899,-118.47351,34.023053000000004,39.262901,10.0,6.73,,,,,,,,,,,,,,,3.0,0.17962723602940636
14656,1511116738.999899,-118.473467,34.023018,40.592278,10.0,4.24,,,,,,,,,,,,,,,4.0,0.09826731244886806
14703,1511116739.9999,-118.47343300000001,34.023012,40.734001,10.0,3.27,,,,,,,,,,,,,,,4.0,0.08184229216305755
14749,1511116740.999898,-118.473403,34.023021,41.085564,10.0,2.85,,,,,,,,,,,,,,,4.0,0.10676642980322279
14796,1511116741.999899,-118.473386,34.023045,41.112114,10.0,2.8,,,,,,,,,,,,,,,4.0,0.1210589517368623
14855,1511116742.999898,-118.47338700000002,34.023075,40.510307,10.0,3.46,,,,,,,,,,,,,,,4.0,0.11531340638848374
14908,1511116743.999898,-118.473417,34.023104,39.924492,10.0,4.09,,,,,,,,,,,,,,,4.0,0.09922114891860283
14941,1511116744.999899,-118.47345700000001,34.023138,39.440239,10.0,5.76,,,,,,,,,,,,,,,4.0,0.08530098058041548
14970,1511116745.9999,-118.47350800000001,34.023179999999996,39.213982,10.0,7.87,,,,,,,,,,,,,,,4.0,0.09486447826560547
14998,1511116746.999899,-118.473576,34.023238,39.40905,10.0,9.73,,,,,,,,,,,,,,,4.0,0.10670063364622841
15026,1511116747.999899,-118.473657,34.023308,38.332634000000006,10.0,10.97,,,,,,,,,,,,,,,4.0,0.10252827548233387
15052,1511116748.999899,-118.47374599999999,34.023386,38.567802,10.0,11.93,,,,,,,,,,,,,,,4.0,0.11048789621331821
15081,1511116749.999899,-118.47384,34.023465,41.821983,10.0,12.72,,,,,,,,,,,,,,,4.0,0.2701628138702599
15107,1511116750.9999,-118.47393999999998,34.023551,38.742332,10.0,13.62,,,,,,,,,,,,,,,4.0,0.19915347854491117
15132,1511116751.999899,-118.474046,34.02364,39.345818,10.0,14.13,,,,,,,,,,,,,,,4.0,0.21034755267307367
15158,1511116752.999899,-118.474153,34.023732,40.570213,10.0,14.26,,,,,,,,,,,,,,,4.0,0.23148963780829315
15186,1511116753.999899,-118.474263,34.023824,40.991051,10.0,13.96,,,,,,,,,,,,,,,4.0,0.23725795858600326
15211,1511116754.9999,-118.47437099999999,34.023913,41.360039,10.0,13.61,,,,,,,,,,,,,,,3.0,0.2043703121237098
15239,1511116755.999899,-118.47447700000001,34.024001,42.236259000000004,10.0,13.56,,,,,,,,,,,,,,,3.0,0.18413612969832568
15267,1511116756.999898,-118.47458400000001,34.024091999999996,42.516106,10.0,13.79,,,,,,,,,,,,,,,4.0,0.29482238827729024
15294,1511116757.999899,-118.47468799999999,34.02418,46.321678000000006,10.0,13.63,,,,,,,,,,,,,,,4.0,0.3377427712645959
15321,1511116758.9999,-118.474792,34.024268,42.772696999999994,10.0,13.21,,,,,,,,,,,,,,,3.0,0.31603832809645105
15350,1511116759.999899,-118.47488899999999,34.024353999999995,42.918265999999996,10.0,13.21,,,,,,,,,,,,,,,4.0,0.3812818648672727
15383,1511116760.999899,-118.474985,34.024438,45.339317,10.0,12.7,,,,,,,,,,,,,,,3.0,0.27052581289494715
15409,1511116761.9999,-118.475082,34.024519,46.464043,10.0,12.75,,,,,,,,,,,,,,,3.0,0.2787338027942071
15436,1511116762.999899,-118.47518500000001,34.024607,42.993858,10.0,13.11,,,,,,,,,,,,,,,3.0,0.255192078090658
15464,1511116763.999899,-118.475282,34.024689,43.301445,10.0,12.41,,,,,,,,,,,,,,,3.0,0.13836624626710367
15490,1511116764.999899,-118.475369,34.024764000000005,43.349113,10.0,11.42,,,,,,,,,,,,,,,3.0,0.135201402412718
