,timestamp,longitude,latitude,elevation,horizontal_accuracy,GPSspeed,yaw,pitch,roll,accelerationX,accelerationY,accelerationZ,pressure,compass,videoIndex,tripFrameIndex,gravityX,gravityY,gravityZ,OBD2speed,vertical_accuracy,bump
0,1529019253.0,-105.156575,39.987288,1715.1,18.1,12.119488,,,,,,,,,0.0,0.0,,,,,31.0,
1,1529019253.0,-105.156575,39.987288,1715.1,18.1,12.119488,,,,,,,,,,,,,,,31.0,0.08886761270766431
6,1529019253.993,-105.156582,39.987244,1713.4,18.1,17.645857,,,,,,,,186.0,,,,,,,31.0,0.11188448778928373
17,1529019254.997,-105.156586,39.9872,1712.5,18.1,18.577412,,,,,,,,183.0,,,,,,,31.0,
18,1529019254.997,-105.156586,39.9872,1712.5,18.1,18.577412,,,,,,,,183.0,1.0,1.0,,,,,31.0,0.12538119061570005
29,1529019255.997,-105.156576,39.987144,1712.4,18.1,15.277148,,,,,,,,172.0,2.0,2.0,,,,,31.0,
30,1529019255.997,-105.156576,39.987144,1712.4,18.1,15.277148,,,,,,,,172.0,,,,,,,31.0,0.17051022380491196
41,1529019256.997,-105.156567,39.987115,1713.6,18.1,9.782264,,,,,,,,165.0,,,,,,,30.9,
42,1529019256.997,-105.156567,39.987115,1713.6,18.1,9.782264,,,,,,,,165.0,3.0,3.0,,,,,30.9,0.154727935066985
53,1529019257.998,-105.15657,39.987102,1713.8,18.0,5.320796,,,,,,,,190.0,,,,,,,30.9,
54,1529019257.998,-105.15657,39.987102,1713.8,18.0,5.320796,,,,,,,,190.0,4.0,4.0,,,,,30.9,0.11936172166556705
65,1529019258.998,-105.156571,39.987095000000004,1713.9,18.0,1.896448,,,,,,,,185.0,,,,,,,30.9,
66,1529019258.998,-105.156571,39.987095000000004,1713.9,18.0,1.896448,,,,,,,,185.0,5.0,5.0,,,,,30.9,0.052704261128936655
77,1529019259.994,-105.156567,39.987087,1714.1,18.0,0.172236,,,,,,,,158.0,,,,,,,30.9,
78,1529019259.994,-105.156567,39.987087,1714.1,18.0,0.172236,,,,,,,,158.0,6.0,6.0,,,,,30.9,0.01975668326628385
89,1529019260.995,-105.15656200000001,39.987082,1713.9,18.0,0.312988,,,,,,,,141.0,,,,,,,30.9,
90,1529019260.995,-105.15656200000001,39.987082,1713.9,18.0,0.312988,,,,,,,,141.0,7.0,7.0,,,,,30.9,0.024926948728534633
101,1529019261.99,-105.156559,39.987082,1714.2,18.0,0.17408800000000002,,,,,,,,112.0,,,,,,,30.9,
102,1529019261.99,-105.156559,39.987082,1714.2,18.0,0.17408800000000002,,,,,,,,112.0,8.0,8.0,,,,,30.9,0.01583331509330501
113,1529019262.994,-105.15655600000001,39.987082,1714.6,18.0,0.024076,,,,,,,,86.0,9.0,9.0,,,,,30.9,
114,1529019262.994,-105.15655600000001,39.987082,1714.6,18.0,0.024076,,,,,,,,86.0,,,,,,,30.9,0.01385862770006233
125,1529019263.995,-105.156554,39.987080999999996,1715.0,18.0,0.225944,,,,,,,,101.0,,,,,,,30.8,
126,1529019263.995,-105.156554,39.987080999999996,1715.0,18.0,0.225944,,,,,,,,101.0,10.0,10.0,,,,,30.8,0.027831409492661184
137,1529019264.997,-105.156554,39.987079,1715.2,18.0,1.459376,,,,,,,,180.0,,,,,,,30.8,
138,1529019264.997,-105.156554,39.987079,1715.2,18.0,1.459376,,,,,,,,180.0,11.0,11.0,,,,,30.8,0.019296304373260614
149,1529019265.996,-105.15655600000001,39.987075,1715.5,18.0,1.337144,,,,,,,,208.0,,,,,,,30.8,
150,1529019265.996,-105.15655600000001,39.987075,1715.5,18.0,1.337144,,,,,,,,208.0,12.0,12.0,,,,,30.8,0.030508563157149664
161,1529019266.996,-105.156557,39.987072999999995,1715.6,18.0,0.9685959999999999,,,,,,,,190.0,,,,,,,30.8,
162,1529019266.996,-105.156557,39.987072999999995,1715.6,18.0,0.9685959999999999,,,,,,,,190.0,13.0,13.0,,,,,30.8,0.016870176000468102
173,1529019267.997,-105.156557,39.987071,1715.7,18.0,1.0204520000000001,,,,,,,,188.0,,,,,,,30.8,
174,1529019267.997,-105.156557,39.987071,1715.7,18.0,1.0204520000000001,,,,,,,,188.0,14.0,14.0,,,,,30.8,0.012069837432981696
185,1529019268.994,-105.156559,39.987066999999996,1715.8,18.0,1.496416,,,,,,,,194.0,15.0,15.0,,,,,30.8,
186,1529019268.994,-105.156559,39.987066999999996,1715.8,18.0,1.496416,,,,,,,,194.0,,,,,,,30.8,0.014709250925284781
197,1529019269.994,-105.156559,39.987061,1715.8,18.0,2.7668880000000002,,,,,,,,182.0,,,,,,,30.8,
198,1529019269.994,-105.156559,39.987061,1715.8,18.0,2.7668880000000002,,,,,,,,182.0,16.0,16.0,,,,,30.8,0.055975033038164014
209,1529019270.994,-105.15656000000001,39.987048,1715.7,18.0,5.94492,,,,,,,,183.0,,,,,,,30.7,
210,1529019270.994,-105.15656000000001,39.987048,1715.7,18.0,5.94492,,,,,,,,183.0,17.0,17.0,,,,,30.7,0.04301962466779859
221,1529019271.994,-105.156566,39.987028,1716.1,18.0,8.521052000000001,,,,,,,,192.0,,,,,,,30.7,
222,1529019271.994,-105.156566,39.987028,1716.1,18.0,8.521052000000001,,,,,,,,192.0,18.0,18.0,,,,,30.7,0.07767912291725523
233,1529019272.995,-105.156582,39.987006,1716.5,13.9,10.173036,,,,,,,,209.0,,,,,,,21.9,
234,1529019272.995,-105.156582,39.987006,1716.5,13.9,10.173036,,,,,,,,209.0,19.0,19.0,,,,,21.9,0.06331055826414193
245,1529019274.009,-105.156608,39.986981,1716.7,13.9,13.71406,,,,,,,,218.0,,,,,,,21.9,
246,1529019274.009,-105.156608,39.986981,1716.7,13.9,13.71406,,,,,,,,218.0,20.0,20.0,,,,,21.9,0.09900905246284987
257,1529019274.997,-105.156654,39.986961,1716.7,13.9,16.82542,,,,,,,,239.0,21.0,21.0,,,,,21.9,
258,1529019274.997,-105.156654,39.986961,1716.7,13.9,16.82542,,,,,,,,239.0,,,,,,,21.9,0.11022763040819894
269,1529019275.997,-105.156714,39.986940000000004,1716.4,13.9,21.47394,,,,,,,,246.0,,,,,,,21.9,
270,1529019275.997,-105.156714,39.986940000000004,1716.4,13.9,21.47394,,,,,,,,246.0,22.0,22.0,,,,,21.9,0.10950635772617497
281,1529019276.997,-105.156792,39.986928999999996,1716.4,17.4,24.914955,,,,,,,,259.0,,,,,,,59.2,
282,1529019276.997,-105.156792,39.986928999999996,1716.4,17.4,24.914955,,,,,,,,259.0,23.0,23.0,,,,,59.2,0.07808246876724255
293,1529019277.996,-105.156875,39.986921,1716.4,13.9,24.581595999999998,,,,,,,,262.0,,,,,,,21.9,
294,1529019277.996,-105.156875,39.986921,1716.4,13.9,24.581595999999998,,,,,,,,262.0,24.0,24.0,,,,,21.9,0.12234062148361768
305,1529019278.997,-105.156952,39.986919,1716.7,17.4,23.457432,,,,,,,,268.0,,,,,,,59.1,
306,1529019278.997,-105.156952,39.986919,1716.7,17.4,23.457432,,,,,,,,268.0,25.0,25.0,,,,,59.1,0.11164639740156487
317,1529019279.997,-105.157025,39.98692,1716.9,13.9,21.47394,,,,,,,,270.0,,,,,,,21.9,
318,1529019279.997,-105.157025,39.98692,1716.9,13.9,21.47394,,,,,,,,270.0,26.0,26.0,,,,,21.9,0.13560228100164942
329,1529019280.998,-105.157087,39.986922,1716.9,13.9,17.671782999999998,,,,,,,,273.0,,,,,,,21.9,
330,1529019280.998,-105.157087,39.986922,1716.9,13.9,17.671782999999998,,,,,,,,273.0,27.0,27.0,,,,,21.9,0.13937670396272278
341,1529019281.999,-105.15713799999999,39.986924,1717.6,13.9,14.634504000000002,,,,,,,,272.0,,,,,,,21.9,
342,1529019281.999,-105.15713799999999,39.986924,1717.6,13.9,14.634504000000002,,,,,,,,272.0,28.0,28.0,,,,,21.9,0.11888015055585296
353,1529019282.998,-105.15718100000001,39.986917,1717.9,13.9,13.360327999999999,,,,,,,,257.0,29.0,29.0,,,,,21.9,
354,1529019282.998,-105.15718100000001,39.986917,1717.9,13.9,13.360327999999999,,,,,,,,257.0,,,,,,,21.9,0.15868214760249133
365,1529019284.0,-105.157206,39.986897,1718.2,13.9,11.239788,,,,,,,,223.0,30.0,30.0,,,,,21.8,
366,1529019284.0,-105.157206,39.986897,1718.2,13.9,11.239788,,,,,,,,223.0,,,,,,,21.8,0.24401810340984284
377,1529019285.005,-105.157205,39.98687,1718.0,13.9,10.897167999999999,,,,,,,,178.0,31.0,31.0,,,,,21.8,
378,1529019285.005,-105.157205,39.98687,1718.0,13.9,10.897167999999999,,,,,,,,178.0,,,,,,,21.8,0.2155213903506621
389,1529019286.0,-105.157202,39.986866,1717.8,13.9,11.980588000000001,,,,,,,,150.0,32.0,32.0,,,,,21.8,
390,1529019286.0,-105.157202,39.986866,1717.8,13.9,11.980588000000001,,,,,,,,150.0,,,,,,,21.8,0.21103554203024666
392,1529019286.099,-105.157199,39.986863,1717.6,13.9,11.5287,,,,,,,,144.0,,,,,,,21.8,0.2176373129773477
394,1529019286.21,-105.15719399999999,39.98686,1716.9,13.9,11.682416,,,,,,,,128.0,,,,,,,21.8,0.262870690644659
396,1529019286.302,-105.157192,39.986856,1716.2,13.9,11.421284,,,,,,,,163.0,,,,,,,21.8,0.2604246532108664
398,1529019286.398,-105.15718899999999,39.986852,1715.2,13.9,12.495444,,,,,,,,142.0,,,,,,,21.8,0.27741304944072115
400,1529019286.498,-105.15718600000001,39.986847999999995,1714.1,13.9,13.349216,,,,,,,,153.0,,,,,,,21.8,0.3030214513858714
402,1529019286.598,-105.157182,39.986845,1714.5,13.9,13.808512,,,,,,,,129.0,,,,,,,21.8,0.27564832667730815
404,1529019286.698,-105.157179,39.986843,1714.5,13.9,13.493672,,,,,,,,134.0,,,,,,,21.8,0.2433146111518994
406,1529019286.796,-105.157177,39.98684,1715.0,13.9,14.2141,,,,,,,,144.0,,,,,,,21.8,
407,1529019286.796,-105.157177,39.98684,1715.0,13.9,14.2141,,,,,,,,144.0,33.0,33.0,,,,,21.8,0.24309874536903725
409,1529019286.898,-105.157174,39.986838,1715.1,13.9,13.078824000000001,,,,,,,,138.0,,,,,,,21.8,0.23353158244657188
411,1529019287.001,-105.157173,39.986835,1715.0,13.9,13.328844,,,,,,,,167.0,,,,,,,21.8,0.2656106172576691
413,1529019287.098,-105.157169,39.986833000000004,1714.8,13.9,13.919632,,,,,,,,119.0,,,,,,,21.8,0.27644891028904417
415,1529019287.219,-105.15716499999999,39.986832,1715.3,13.9,14.443748000000001,,,,,,,,110.0,,,,,,,21.8,0.24446267608778235
417,1529019287.298,-105.15716100000002,39.986831,1715.4,13.9,14.375224,,,,,,,,103.0,,,,,,,21.8,0.16628289148315892
419,1529019287.397,-105.15715700000001,39.986831,1715.4,13.9,13.552935999999999,,,,,,,,99.0,,,,,,,21.8,0.17393389548906216
421,1529019287.498,-105.157152,39.98683,1715.5,13.9,13.841848,,,,,,,,95.0,,,,,,,21.8,0.12758526560696576
423,1529019287.598,-105.157147,39.98683,1715.6,13.9,14.165948,,,,,,,,90.0,,,,,,,21.8,0.14724808997063424
425,1529019287.701,-105.157141,39.98683,1715.8,13.9,14.710435999999998,,,,,,,,87.0,,,,,,,21.8,0.16688019654830227
427,1529019287.799,-105.15713500000001,39.986831,1716.2,13.9,15.429012,,,,,,,,84.0,,,,,,,21.8,
428,1529019287.799,-105.15713500000001,39.986831,1716.2,13.9,15.429012,,,,,,,,84.0,34.0,34.0,,,,,21.8,0.1331953452640144
430,1529019287.898,-105.157128,39.986831,1716.5,13.9,15.429012,,,,,,,,85.0,,,,,,,21.8,0.08567963585356791
432,1529019287.998,-105.157122,39.986832,1716.8,13.9,16.255005,,,,,,,,86.0,,,,,,,21.8,0.0729520390393579
434,1529019288.097,-105.15711599999999,39.986832,1716.9,13.9,16.912464,,,,,,,,90.0,,,,,,,21.8,0.07360027173862879
436,1529019288.195,-105.15711100000001,39.986832,1717.0,13.9,16.710596,,,,,,,,90.0,,,,,,,21.8,0.05886425061104575
438,1529019288.297,-105.157105,39.986832,1717.2,13.9,17.038401,,,,,,,,84.0,,,,,,,21.8,0.0925526876973327
442,1529019288.399,-105.157098,39.986832,1717.3,13.9,17.855131,,,,,,,,86.0,,,,,,,21.8,0.16486357996840903
445,1529019288.499,-105.157091,39.986833000000004,1717.4,13.9,19.107084,,,,,,,,81.0,,,,,,,21.8,0.1419929575718458
449,1529019288.598,-105.15708400000001,39.986833000000004,1717.4,13.9,19.433037,,,,,,,,90.0,,,,,,,21.8,0.06343500610861483
453,1529019288.699,-105.157078,39.986833000000004,1717.5,13.9,20.134945000000002,,,,,,,,91.0,,,,,,,21.8,0.09829547293746543
456,1529019288.799,-105.157071,39.986833000000004,1717.4,13.9,20.338663,,,,,,,,87.0,35.0,35.0,,,,,21.8,
457,1529019288.799,-105.157071,39.986833000000004,1717.4,13.9,20.338663,,,,,,,,87.0,,,,,,,21.8,0.06786015030929418
461,1529019288.899,-105.15706399999999,39.986833000000004,1717.4,13.9,20.962788,,,,,,,,90.0,,,,,,,21.8,0.09633794683301071
465,1529019289.003,-105.15705700000001,39.986834,1717.4,13.9,21.409121,,,,,,,,86.0,,,,,,,21.8,0.09253107586103168
468,1529019289.1,-105.15705,39.986834,1717.5,13.9,21.873972,,,,,,,,86.0,,,,,,,21.8,0.09712878049270462
472,1529019289.198,-105.15704299999999,39.986834,1717.6,13.9,22.222148999999998,,,,,,,,91.0,,,,,,,21.8,0.08946507698538017
475,1529019289.299,-105.157036,39.986834,1717.6,13.9,22.733299,,,,,,,,84.0,,,,,,,21.8,0.08403570669661796
479,1529019289.399,-105.157028,39.986834,1717.7,13.9,22.962948,,,,,,,,90.0,,,,,,,21.8,0.12543524225671188
483,1529019289.5,-105.157021,39.986834,1717.7,17.3,23.272232000000002,,,,,,,,90.0,,,,,,,59.0,0.12574975149080814
486,1529019289.599,-105.15701299999999,39.986835,1717.7,17.3,24.133411,,,,,,,,88.0,,,,,,,59.0,0.1301921656629154
490,1529019289.697,-105.157005,39.986835,1717.8,17.3,24.774204,,,,,,,,86.0,,,,,,,59.0,0.10065286881157437
493,1529019289.799,-105.156997,39.986835,1717.9,17.3,25.179792000000003,,,,,,,,88.0,,,,,,,59.0,
494,1529019289.799,-105.156997,39.986835,1717.9,17.3,25.179792000000003,,,,,,,,88.0,36.0,36.0,,,,,59.0,0.1281990639591413
498,1529019289.899,-105.15698799999998,39.986835,1718.0,17.3,25.981709,,,,,,,,87.0,,,,,,,59.0,0.12764403628842202
502,1529019289.999,-105.156979,39.986835,1718.1,17.3,26.487305,,,,,,,,88.0,,,,,,,59.0,0.1180211845390479
505,1529019290.1,-105.15697,39.986835,1718.1,17.3,26.746584000000002,,,,,,,,90.0,,,,,,,59.0,0.10632027088001611
509,1529019290.2,-105.15696100000001,39.986836,1718.2,17.3,27.809631,,,,,,,,87.0,,,,,,,59.0,0.11394735626595291
512,1529019290.299,-105.156952,39.986836,1718.3,17.3,28.202254999999997,,,,,,,,88.0,,,,,,,59.0,0.10224480426897006
516,1529019290.399,-105.15694199999999,39.986836,1718.3,17.3,28.807859000000004,,,,,,,,87.0,,,,,,,59.0,0.11344602240713422
520,1529019290.499,-105.15693300000001,39.986836,1718.3,17.3,29.359756,,,,,,,,88.0,,,,,,,59.0,0.08837420438114281
523,1529019290.6,-105.15692299999999,39.986837,1718.4,17.3,29.856091999999997,,,,,,,,87.0,,,,,,,59.0,0.07675936424958195
527,1529019290.698,-105.15691399999999,39.986837,1718.5,17.3,30.189451000000002,,,,,,,,88.0,,,,,,,59.0,0.0889606654651369
530,1529019290.799,-105.156903,39.986837,1718.5,17.3,31.006184,,,,,,,,87.0,37.0,37.0,,,,,59.0,
531,1529019290.799,-105.156903,39.986837,1718.5,17.3,31.006184,,,,,,,,87.0,,,,,,,59.0,0.11682893477217021
535,1529019290.897,-105.156893,39.986838,1718.5,17.3,31.461777,,,,,,,,87.0,,,,,,,59.0,0.08011242100947892
539,1529019290.999,-105.15688200000001,39.986838,1718.7,17.3,31.859957,,,,,,,,87.0,,,,,,,59.0,0.09415943925066673
542,1529019291.099,-105.156871,39.986838,1718.8,17.3,32.472969,,,,,,,,88.0,,,,,,,59.0,0.10750813922675807
546,1529019291.199,-105.156861,39.986838,1718.8,17.3,32.92115,,,,,,,,90.0,,,,,,,59.0,0.10644247272588137
549,1529019291.298,-105.15685,39.986838,1718.8,17.3,33.313774,,,,,,,,90.0,,,,,,,59.0,0.0823771813064759
553,1529019291.399,-105.15683899999999,39.986838,1718.8,17.3,33.730476,,,,,,,,88.0,,,,,,,59.0,0.10478072341800279
556,1529019291.499,-105.156827,39.986838,1718.8,17.3,34.395344,,,,,,,,88.0,,,,,,,59.0,0.07517978451685
560,1529019291.598,-105.15681599999999,39.986839,1719.0,13.9,34.854641,,,,,,,,87.0,,,,,,,21.8,0.11000909053346455
564,1529019291.7,-105.15680400000001,39.986839,1719.0,13.9,35.163925,,,,,,,,88.0,,,,,,,21.8,0.07681796664843454
567,1529019291.803,-105.156793,39.986839,1719.1,13.9,35.734341,,,,,,,,88.0,38.0,38.0,,,,,21.8,
568,1529019291.803,-105.156793,39.986839,1719.1,13.9,35.734341,,,,,,,,88.0,,,,,,,21.8,0.12338962679253065
572,1529019291.904,-105.15678100000001,39.986839,1719.1,13.9,36.112148,,,,,,,,90.0,,,,,,,21.8,0.06512296062065974
575,1529019292.001,-105.156769,39.986839,1719.2,13.9,36.719604,,,,,,,,90.0,,,,,,,21.8,0.07565051222562871
579,1529019292.115,-105.15675700000001,39.986839,1719.3,13.9,37.102965999999995,,,,,,,,90.0,,,,,,,21.8,0.047138094997570705
583,1529019292.201,-105.15674399999999,39.986839,1719.4,13.9,37.615971,,,,,,,,90.0,,,,,,,21.8,0.06827151675479314
586,1529019292.299,-105.15673100000001,39.986839,1719.7,13.9,37.925255,,,,,,,,91.0,,,,,,,21.8,0.043943145085439665
590,1529019292.399,-105.156719,39.986839,1719.8,13.9,38.447521,,,,,,,,90.0,,,,,,,21.8,0.07658328799418317
594,1529019292.5,-105.156706,39.986839,1719.8,13.9,39.147575,,,,,,,,90.0,,,,,,,21.8,0.0673349834781297
597,1529019292.6,-105.15669299999999,39.986838,1719.9,13.9,39.47353,,,,,,,,91.0,,,,,,,21.8,0.07812809993849844
601,1529019292.704,-105.15668000000001,39.986838,1720.0,13.9,39.525383000000005,,,,,,,,90.0,,,,,,,21.8,0.05383307533477908
604,1529019292.799,-105.156667,39.986838,1720.2,13.9,40.021721,,,,,,,,90.0,39.0,39.0,,,,,21.8,
605,1529019292.799,-105.156667,39.986838,1720.2,13.9,40.021721,,,,,,,,90.0,,,,,,,21.8,0.07439085965358916
609,1529019292.9,-105.156655,39.986838,1720.4,13.9,40.288406,,,,,,,,90.0,,,,,,,21.8,0.08670063436907484
613,1529019293.001,-105.156641,39.986838,1720.5,13.9,40.593987,,,,,,,,90.0,,,,,,,21.8,0.1145512985522207
615,1529019293.1,-105.156628,39.986838,1720.6,13.9,40.682884,,,,,,,,90.0,,,,,,,21.8,0.07420916385460762
620,1529019293.204,-105.15661399999999,39.986838,1720.6,13.9,41.377384,,,,,,,,90.0,,,,,,,21.8,0.1151781229227148
623,1529019293.301,-105.1566,39.986838,1720.6,13.9,41.640369,,,,,,,,90.0,,,,,,,21.8,0.11035397591387452
626,1529019293.399,-105.156586,39.986838,1720.6,13.9,41.934837,,,,,,,,90.0,,,,,,,21.8,0.10912836478203089
630,1529019293.5,-105.156573,39.986838,1720.8,13.9,41.64222,,,,,,,,89.0,,,,,,,21.8,0.10856334556377674
633,1529019293.6,-105.156559,39.986838,1720.7,13.9,42.112629,,,,,,,,90.0,,,,,,,21.8,0.11621961968617864
637,1529019293.697,-105.156545,39.986838,1720.8,13.9,42.603409,,,,,,,,89.0,,,,,,,21.8,0.10904127658827183
641,1529019293.797,-105.156531,39.986838,1720.9,13.9,42.571922,,,,,,,,90.0,40.0,40.0,,,,,21.8,
642,1529019293.797,-105.156531,39.986838,1720.9,13.9,42.571922,,,,,,,,90.0,,,,,,,21.8,0.1320416600925632
645,1529019293.901,-105.156517,39.986838,1721.1,13.9,43.021961,,,,,,,,89.0,,,,,,,21.8,0.10298058069364341
649,1529019294.004,-105.156503,39.986838,1721.2,13.9,42.999736999999996,,,,,,,,90.0,,,,,,,21.8,0.11372334852614918
652,1529019294.1,-105.156489,39.986838,1721.2,13.9,43.553486,,,,,,,,90.0,,,,,,,21.8,0.1304338913013025
656,1529019294.203,-105.156475,39.986838,1721.3,13.9,43.934998,,,,,,,,90.0,,,,,,,21.8,0.10251829105091442
660,1529019294.301,-105.15646000000001,39.986838,1721.5,13.9,43.740536,,,,,,,,90.0,,,,,,,21.8,0.09761659694949419
663,1529019294.401,-105.156446,39.986838,1721.5,13.9,44.257244,,,,,,,,90.0,,,,,,,21.8,0.08935882720806042
667,1529019294.5,-105.15643100000001,39.986838,1721.5,13.9,44.659126,,,,,,,,90.0,,,,,,,21.8,0.10417773274553445
670,1529019294.601,-105.15641699999999,39.986838,1721.5,13.9,44.855438,,,,,,,,90.0,,,,,,,21.8,0.11227644454648535
674,1529019294.7,-105.156402,39.986838,1721.6,13.9,44.992489,,,,,,,,90.0,,,,,,,21.8,0.0798561206170197
678,1529019294.799,-105.15638700000001,39.986838,1721.7,13.9,45.218433000000005,,,,,,,,90.0,41.0,41.0,,,,,21.8,
679,1529019294.799,-105.15638700000001,39.986838,1721.7,13.9,45.218433000000005,,,,,,,,90.0,,,,,,,21.8,0.099443451267542
682,1529019294.9,-105.15637199999999,39.986838,1721.6,13.9,45.805515,,,,,,,,90.0,,,,,,,21.8,0.09521554494934113
686,1529019295.0,-105.15635800000001,39.986838,1721.8,13.9,45.827740000000006,,,,,,,,90.0,,,,,,,21.8,0.10375451797391765
689,1529019295.097,-105.15634399999999,39.986837,1722.0,13.9,46.294445,,,,,,,,90.0,,,,,,,21.8,0.12341798896433209
691,1529019295.198,-105.156329,39.986837,1722.1,13.9,46.390747,,,,,,,,90.0,,,,,,,21.8,0.0951262319236918
693,1529019295.303,-105.156314,39.986837,1722.2,13.9,46.579651,,,,,,,,90.0,,,,,,,21.8,0.1000949549178179
695,1529019295.399,-105.156299,39.986837,1722.2,13.9,46.909309,,,,,,,,90.0,,,,,,,21.8,0.08066597795849252
697,1529019295.498,-105.15628400000001,39.986837,1722.2,13.9,46.751888,,,,,,,,90.0,,,,,,,21.8,0.059447455790807395
701,1529019295.598,-105.156268,39.986837,1722.3,13.9,47.070431,,,,,,,,90.0,,,,,,,21.8,0.10807867504739313
704,1529019295.698,-105.156253,39.986837,1722.3,13.9,46.966721,,,,,,,,90.0,,,,,,,21.8,0.09593747964169165
708,1529019295.798,-105.15623799999999,39.986837,1722.3,13.9,47.448238,,,,,,,,90.0,42.0,42.0,,,,,21.8,
709,1529019295.798,-105.15623799999999,39.986837,1722.3,13.9,47.448238,,,,,,,,90.0,,,,,,,21.8,0.06768308503607087
712,1529019295.903,-105.156222,39.986837,1722.2,13.9,48.218674,,,,,,,,90.0,,,,,,,21.8,0.08257118141337205
716,1529019296.001,-105.15620600000001,39.986836,1722.3,13.9,47.833453999999996,,,,,,,,90.0,,,,,,,21.8,0.09115920140062658
720,1529019296.124,-105.15619,39.986836,1722.3,13.9,48.014953999999996,,,,,,,,90.0,,,,,,,21.8,0.11840608092492548
723,1529019296.199,-105.156174,39.986836,1722.3,13.9,48.455727,,,,,,,,90.0,,,,,,,21.8,0.08958794561770016
727,1529019296.299,-105.156158,39.986836,1722.3,13.9,49.209492,,,,,,,,90.0,,,,,,,21.8,0.11852847759083047
730,1529019296.4,-105.15614199999999,39.986836,1722.3,13.9,48.974289,,,,,,,,90.0,,,,,,,21.8,0.12455119429375215
734,1529019296.497,-105.156126,39.986836,1722.2,13.9,49.405803999999996,,,,,,,,90.0,,,,,,,21.8,0.07335529974037322
738,1529019296.598,-105.15611000000001,39.986836,1722.2,13.9,49.791019,,,,,,,,90.0,,,,,,,21.8,0.08877499647986475
741,1529019296.699,-105.156094,39.986836,1722.1,13.9,49.92992,,,,,,,,90.0,,,,,,,21.8,0.09270922284217467
745,1529019296.799,-105.156077,39.986836,1722.1,13.9,49.855839,,,,,,,,90.0,,,,,,,21.8,
746,1529019296.799,-105.156077,39.986836,1722.1,13.9,49.855839,,,,,,,,90.0,43.0,43.0,,,,,21.8,0.047999999999999994
749,1529019296.899,-105.15606100000001,39.986836,1722.1,13.9,50.081783,,,,,,,,90.0,,,,,,,21.8,0.037121422386541175
753,1529019296.999,-105.156044,39.986836,1722.0,13.9,50.131786,,,,,,,,90.0,,,,,,,21.8,0.03178049716414141
756,1529019297.122,-105.156028,39.986836,1722.0,13.9,50.105862,,,,,,,,90.0,,,,,,,21.8,0.048104053883222773
760,1529019297.199,-105.156011,39.986836,1721.9,13.9,50.191051,,,,,,,,90.0,,,,,,,21.8,0.05977457653551383
764,1529019297.299,-105.15599499999999,39.986836,1721.9,13.9,50.170681,,,,,,,,90.0,,,,,,,21.8,0.030675723300355933
767,1529019297.4,-105.155978,39.986836,1721.8,13.9,50.116974,,,,,,,,90.0,,,,,,,21.8,0.011445523142259596
771,1529019297.5,-105.15596200000002,39.986836,1721.8,13.9,50.129936,,,,,,,,90.0,,,,,,,21.8,0.03433656942677879
775,1529019297.599,-105.15594499999999,39.986836,1721.8,13.9,50.43922,,,,,,,,90.0,,,,,,,21.8,0.03920459156782531
778,1529019297.698,-105.155929,39.986836,1721.8,13.9,49.785465,,,,,,,,90.0,,,,,,,21.8,0.058266628527828865
782,1529019297.799,-105.15591299999998,39.986836,1721.8,13.9,49.685455,,,,,,,,90.0,44.0,44.0,,,,,21.8,
783,1529019297.799,-105.15591299999998,39.986836,1721.8,13.9,49.685455,,,,,,,,90.0,,,,,,,21.8,0.021
786,1529019297.897,-105.155897,39.986836,1721.8,13.9,49.548409,,,,,,,,90.0,,,,,,,21.8,0.04652956049652737
790,1529019297.999,-105.15588100000001,39.986836,1721.8,13.9,49.496552,,,,,,,,90.0,,,,,,,21.8,0.05357238094391549
794,1529019298.123,-105.15586499999999,39.986836,1721.7,13.9,49.289127,,,,,,,,90.0,,,,,,,21.8,0.09539916142189092
797,1529019298.2,-105.155849,39.986836,1721.7,13.9,48.979843,,,,,,,,90.0,,,,,,,21.8,0.03330165161069343
801,1529019298.299,-105.155833,39.986836,1721.6,13.9,48.859463,,,,,,,,90.0,,,,,,,21.8,0.04376071297408213
804,1529019298.399,-105.155817,39.986836,1721.6,13.9,48.470543,,,,,,,,90.0,,,,,,,21.8,0.03992492955535426
808,1529019298.499,-105.155801,39.986836,1721.6,13.9,48.500175,,,,,,,,90.0,,,,,,,21.8,0.03266496594212215
812,1529019298.599,-105.15578500000001,39.986836,1721.6,13.9,48.248302,,,,,,,,90.0,,,,,,,21.8,0.046411205543489174
815,1529019298.699,-105.15576999999999,39.986836,1721.6,13.9,47.961242999999996,,,,,,,,90.0,,,,,,,21.8,0.04053393639902249
819,1529019298.798,-105.155754,39.986836,1721.5,13.9,47.857533000000004,,,,,,,,90.0,45.0,45.0,,,,,21.8,
820,1529019298.798,-105.155754,39.986836,1721.5,13.9,47.857533000000004,,,,,,,,90.0,,,,,,,21.8,0.07094363960215179
823,1529019298.898,-105.15573899999998,39.986836,1721.6,13.9,47.507504,,,,,,,,90.0,,,,,,,21.8,0.033256578296631784
827,1529019298.999,-105.155723,39.986836,1721.6,13.9,46.955608000000005,,,,,,,,89.0,,,,,,,21.8,0.03552463933666322
831,1529019299.125,-105.155708,39.986836,1721.5,13.9,46.955608000000005,,,,,,,,90.0,,,,,,,21.8,0.019261360284258223
834,1529019299.198,-105.155693,39.986836,1721.5,13.9,46.429642,,,,,,,,90.0,,,,,,,21.8,0.03229551052391029
838,1529019299.297,-105.15567800000001,39.986836,1721.5,13.9,46.477790999999996,,,,,,,,89.0,,,,,,,21.8,0.028178005607210743
841,1529019299.399,-105.15566299999999,39.986836,1721.5,13.9,45.990715,,,,,,,,90.0,,,,,,,21.8,0.06860029154456998
845,1529019299.5,-105.155649,39.986836,1721.5,13.9,45.433265999999996,,,,,,,,90.0,,,,,,,21.8,0.08544588931013593
849,1529019299.599,-105.155634,39.986836,1721.5,13.8,45.285103,,,,,,,,90.0,,,,,,,21.8,0.050813384063650005
852,1529019299.698,-105.15562,39.986836,1721.5,13.8,44.742470000000004,,,,,,,,89.0,,,,,,,21.8,0.06772001181334805
856,1529019299.798,-105.15560500000001,39.986836,1721.4,13.8,44.585049,,,,,,,,90.0,46.0,46.0,,,,,21.8,
857,1529019299.798,-105.15560500000001,39.986836,1721.4,13.8,44.585049,,,,,,,,90.0,,,,,,,21.8,0.05281098370604358
861,1529019299.899,-105.15559099999999,39.986836,1721.5,13.8,43.933144,,,,,,,,90.0,,,,,,,21.8,0.06612866246946175
864,1529019299.999,-105.15557700000001,39.986836,1721.5,13.8,43.499775,,,,,,,,90.0,,,,,,,21.8,0.16111486585663037
868,1529019300.121,-105.15556299999999,39.986836,1721.5,13.8,42.921951,,,,,,,,90.0,,,,,,,21.8,0.06788961628997471
871,1529019300.2,-105.15555,39.986836,1721.5,13.8,42.436729,,,,,,,,89.0,,,,,,,21.8,0.06953416426476987
875,1529019300.301,-105.15553600000001,39.986836,1721.5,13.8,42.171890000000005,,,,,,,,90.0,,,,,,,21.8,0.1751171036763685
878,1529019300.399,-105.155523,39.986837,1721.5,13.8,41.512581,,,,,,,,89.0,,,,,,,21.8,0.08268615361715648
882,1529019300.499,-105.15551,39.986837,1721.4,13.8,41.221817,,,,,,,,90.0,,,,,,,21.8,0.07542545989253231
885,1529019300.597,-105.155496,39.986837,1721.4,13.8,40.462498,,,,,,,,89.0,,,,,,,21.8,0.06093439094632849
889,1529019300.697,-105.155483,39.986837,1721.4,13.8,40.423603,,,,,,,,90.0,,,,,,,21.8,0.0917877987534291
893,1529019300.799,-105.15547099999999,39.986837,1721.4,13.8,39.812443,,,,,,,,89.0,47.0,47.0,,,,,21.8,
894,1529019300.799,-105.15547099999999,39.986837,1721.4,13.8,39.812443,,,,,,,,89.0,,,,,,,21.8,0.12624183141890805
897,1529019300.9,-105.15545800000001,39.986837,1721.4,13.8,39.192023999999996,,,,,,,,90.0,,,,,,,21.8,0.10443179592442141
901,1529019301.001,-105.155446,39.986837,1721.4,13.8,38.619755,,,,,,,,90.0,,,,,,,21.8,0.050059964043135306
905,1529019301.124,-105.15543400000001,39.986837,1721.4,13.8,38.182686,,,,,,,,88.0,,,,,,,21.8,0.08271033792700885
908,1529019301.2,-105.155422,39.986837,1721.4,13.8,37.406696000000004,,,,,,,,90.0,,,,,,,21.8,0.06543699259593155
912,1529019301.3,-105.15541,39.986837,1721.4,13.8,37.204826000000004,,,,,,,,90.0,,,,,,,21.8,0.09776502442080194
915,1529019301.4,-105.15539799999999,39.986837,1721.4,13.8,36.458473,,,,,,,,88.0,,,,,,,21.8,0.09033825324855467
919,1529019301.501,-105.15538600000001,39.986837,1721.4,13.8,36.191784000000006,,,,,,,,90.0,,,,,,,21.8,0.11263214461245068
923,1529019301.603,-105.155375,39.986837,1721.5,13.8,35.49358,,,,,,,,90.0,,,,,,,21.8,0.10640958603434185
926,1529019301.701,-105.15536399999999,39.986837,1721.4,13.8,34.937981,,,,,,,,90.0,,,,,,,21.8,0.10896788517723925
930,1529019301.803,-105.155353,39.986837,1721.5,13.8,34.456459,,,,,,,,88.0,48.0,48.0,,,,,21.8,
931,1529019301.803,-105.155353,39.986837,1721.5,13.8,34.456459,,,,,,,,88.0,,,,,,,21.8,0.12641598000252974
933,1529019301.899,-105.15534199999999,39.986837,1721.5,13.8,33.724918,,,,,,,,90.0,,,,,,,21.8,0.13894243412291293
937,1529019301.997,-105.155332,39.986837,1721.5,13.8,33.252659,,,,,,,,90.0,,,,,,,21.8,0.1113597772986279
941,1529019302.098,-105.155321,39.986838,1721.6,13.8,32.884113,,,,,,,,88.0,,,,,,,21.8,0.11422784249034909
944,1529019302.2,-105.15531100000001,39.986838,1721.6,13.8,32.109978000000005,,,,,,,,90.0,,,,,,,21.8,0.10234744745229361
948,1529019302.304,-105.155301,39.986838,1721.6,13.8,31.774763,,,,,,,,90.0,,,,,,,21.8,0.12390722335683259
951,1529019302.403,-105.15529099999999,39.986838,1721.6,13.8,31.12286,,,,,,,,90.0,,,,,,,21.8,0.11604740410711478
955,1529019302.499,-105.155281,39.986838,1721.6,13.8,30.645044,,,,,,,,90.0,,,,,,,21.8,0.14383323677092164
959,1529019302.6,-105.155272,39.986838,1721.6,13.8,29.744971999999997,,,,,,,,90.0,,,,,,,21.8,0.11349889867307084
962,1529019302.7,-105.15526200000001,39.986838,1721.7,13.8,29.269009000000004,,,,,,,,88.0,,,,,,,21.8,0.13990711204224038
966,1529019302.8,-105.155253,39.986838,1721.7,13.8,29.007875,,,,,,,,88.0,49.0,49.0,,,,,21.8,
967,1529019302.8,-105.155253,39.986838,1721.7,13.8,29.007875,,,,,,,,88.0,,,,,,,21.8,0.13709485767161364
971,1529019302.9,-105.155244,39.986838,1721.8,13.8,27.967052000000002,,,,,,,,90.0,,,,,,,21.8,0.1270196835140129
974,1529019303.0,-105.155235,39.986838,1721.8,13.8,27.592949,,,,,,,,88.0,,,,,,,21.8,0.13002307487519282
979,1529019303.125,-105.155227,39.986838,1721.8,13.8,26.998455,,,,,,,,90.0,,,,,,,21.8,0.10276672613253765
981,1529019303.199,-105.15521799999999,39.986838,1721.9,13.8,26.457672,,,,,,,,87.0,,,,,,,21.8,0.13064838307457155
985,1529019303.298,-105.15521000000001,39.986838,1721.9,13.8,25.896517000000003,,,,,,,,91.0,,,,,,,21.8,0.09289779329994874
989,1529019303.397,-105.155202,39.986838,1722.0,13.8,25.615011,,,,,,,,86.0,,,,,,,21.8,0.10080674580602234
992,1529019303.499,-105.155194,39.986838,1722.0,13.8,25.192757,,,,,,,,90.0,,,,,,,21.8,0.06946941773183363
996,1529019303.599,-105.15518600000001,39.986839,1722.0,13.8,24.898289000000002,,,,,,,,88.0,,,,,,,21.8,0.11102252023801298
999,1529019303.701,-105.155178,39.986839,1722.0,13.8,24.618635,,,,,,,,90.0,,,,,,,21.8,0.1150173899895142
1003,1529019303.799,-105.15517,39.986839,1722.1,13.8,23.964879999999997,,,,,,,,88.0,50.0,50.0,,,,,21.8,
1004,1529019303.799,-105.15517,39.986839,1722.1,13.8,23.964879999999997,,,,,,,,88.0,,,,,,,21.8,0.0499799959983992
1008,1529019303.898,-105.15516299999999,39.986839,1722.1,13.8,23.492620000000002,,,,,,,,90.0,,,,,,,21.8,0.0671863081289633
1011,1529019303.999,-105.15515500000001,39.986839,1722.1,13.8,23.388907999999997,,,,,,,,88.0,,,,,,,21.8,0.034219877264537346
1015,1529019304.122,-105.155148,39.986839,1722.1,13.8,23.214821,,,,,,,,88.0,,,,,,,21.8,0.06960603422117942
1018,1529019304.199,-105.15513999999999,39.986839,1722.1,13.8,22.603661,,,,,,,,90.0,,,,,,,21.8,0.09496315074806648
1022,1529019304.3,-105.155133,39.986839,1722.1,13.8,22.572176000000002,,,,,,,,86.0,,,,,,,21.8,0.05787918451395113
1026,1529019304.4,-105.155126,39.98684,1722.2,13.8,21.792483999999998,,,,,,,,88.0,,,,,,,21.8,0.08538149682454624
1029,1529019304.504,-105.155119,39.98684,1722.1,13.8,21.868416,,,,,,,,90.0,,,,,,,21.8,0.023748684174075836
1033,1529019304.599,-105.15511200000002,39.98684,1722.1,13.8,21.833226999999997,,,,,,,,88.0,,,,,,,21.8,0.02080865204668481
1036,1529019304.697,-105.155105,39.98684,1722.1,13.8,21.481348,,,,,,,,88.0,,,,,,,21.8,0.033763886032268264
1040,1529019304.797,-105.155098,39.98684,1722.2,13.8,21.49246,,,,,,,,88.0,,,,,,,21.8,
1041,1529019304.797,-105.155098,39.98684,1722.2,13.8,21.49246,,,,,,,,88.0,51.0,51.0,,,,,21.8,0.04114608122288197
1045,1529019304.899,-105.15509099999998,39.98684,1722.2,13.8,21.503572,,,,,,,,88.0,,,,,,,21.8,0.005099019513592785
1048,1529019304.999,-105.155084,39.98684,1722.2,13.8,21.096132,,,,,,,,88.0,,,,,,,21.8,0.024779023386727737
1051,1529019305.122,-105.155077,39.98684,1722.2,13.8,21.068351999999997,,,,,,,,90.0,,,,,,,21.8,0.022869193252058544
1053,1529019305.199,-105.15507,39.986841,1722.3,13.8,21.068351999999997,,,,,,,,86.0,,,,,,,21.8,0.03676955262170047
1055,1529019305.299,-105.155064,39.986841,1722.3,13.8,20.772032,,,,,,,,88.0,,,,,,,21.8,0.028913664589601918
1057,1529019305.399,-105.15505700000001,39.986841,1722.3,13.8,20.670172,,,,,,,,90.0,,,,,,,21.8,0.0377094152699296
1059,1529019305.503,-105.15505,39.986841,1722.3,13.8,20.507196,,,,,,,,88.0,,,,,,,21.8,0.018384776310850236
1062,1529019305.6,-105.15504399999999,39.986841,1722.5,13.8,19.625645000000002,,,,,,,,85.0,,,,,,,21.8,0.04635730794599704
1065,1529019305.699,-105.15503799999999,39.986841,1722.6,13.8,19.433037,,,,,,,,90.0,,,,,,,21.8,0.023086792761230393
1069,1529019305.804,-105.155032,39.986841999999996,1722.7,13.8,19.736765,,,,,,,,86.0,52.0,52.0,,,,,21.8,
1070,1529019305.804,-105.155032,39.986841999999996,1722.7,13.8,19.736765,,,,,,,,86.0,,,,,,,21.8,0.009899494936611665
1073,1529019305.9,-105.155025,39.986841999999996,1722.7,13.8,19.640459,,,,,,,,90.0,,,,,,,21.8,0.03967366884975474
1077,1529019305.999,-105.155019,39.986841999999996,1722.7,13.8,19.903444,,,,,,,,90.0,,,,,,,21.8,0.042485291572496
1081,1529019306.098,-105.15501200000001,39.986841999999996,1722.7,13.8,19.707132,,,,,,,,86.0,,,,,,,21.8,0.05621387729022078
1084,1529019306.197,-105.155006,39.986841999999996,1722.7,13.8,19.840475,,,,,,,,90.0,,,,,,,21.8,0.023345235059857503
1088,1529019306.3,-105.154999,39.986841999999996,1722.8,13.8,19.6775,,,,,,,,88.0,,,,,,,21.8,0.06107372593840988
1091,1529019306.4,-105.15499299999999,39.986841999999996,1722.7,13.8,19.80714,,,,,,,,88.0,,,,,,,21.8,0.023108440016582684
1095,1529019306.504,-105.15498600000001,39.986843,1722.8,13.8,19.355251000000003,,,,,,,,87.0,,,,,,,21.8,0.047265209192385894
1099,1529019306.603,-105.15498000000001,39.986843,1722.8,13.8,19.295988,,,,,,,,90.0,,,,,,,21.8,0.03672873534441391
1102,1529019306.7,-105.154974,39.986843,1722.8,13.8,18.936701,,,,,,,,87.0,,,,,,,21.8,0.056382621436041794
1106,1529019306.799,-105.154968,39.986843,1722.8,13.8,18.662603,,,,,,,,92.0,53.0,53.0,,,,,21.8,
1107,1529019306.799,-105.154968,39.986843,1722.8,13.8,18.662603,,,,,,,,92.0,,,,,,,21.8,0.03619392214170772
1110,1529019306.9,-105.15496200000001,39.986843,1722.8,13.8,18.449623000000003,,,,,,,,87.0,,,,,,,21.8,0.06329296959378664
1114,1529019307.0,-105.154956,39.986843,1722.8,13.8,18.58482,,,,,,,,87.0,,,,,,,21.8,0.03997499218261337
1118,1529019307.124,-105.15495,39.986843,1722.9,13.8,18.119968,,,,,,,,87.0,,,,,,,21.8,0.038961519477556314
1121,1529019307.198,-105.154944,39.986843,1722.8,13.8,17.916248,,,,,,,,90.0,,,,,,,21.8,0.04561797891182817
1125,1529019307.299,-105.15493899999998,39.986843,1722.9,13.8,17.493992000000002,,,,,,,,87.0,,,,,,,21.8,0.05396295025292816
1128,1529019307.399,-105.15493300000001,39.986843,1722.9,13.8,17.293976,,,,,,,,90.0,,,,,,,21.8,0.054708317466359714
1132,1529019307.497,-105.154927,39.986843,1722.9,13.8,17.151373,,,,,,,,87.0,,,,,,,21.8,0.0678675180038286
1136,1529019307.597,-105.154922,39.986844,1722.9,13.8,17.036549,,,,,,,,87.0,,,,,,,21.8,0.048363209157374985
1139,1529019307.698,-105.154917,39.986844,1722.9,13.8,16.553176999999998,,,,,,,,87.0,,,,,,,21.8,0.06574191965557441
1143,1529019307.798,-105.15491200000001,39.986844,1723.0,13.8,16.138329000000002,,,,,,,,90.0,54.0,54.0,,,,,21.8,
1144,1529019307.798,-105.15491200000001,39.986844,1723.0,13.8,16.138329000000002,,,,,,,,90.0,,,,,,,21.8,0.05075431016179808
1147,1529019307.903,-105.15490600000001,39.986844,1723.0,13.8,15.947572000000001,,,,,,,,87.0,,,,,,,21.8,0.05951470406546604
1151,1529019308.001,-105.154901,39.986844,1723.1,13.8,16.004984,,,,,,,,90.0,,,,,,,21.8,0.0442944691807002
1154,1529019308.122,-105.154896,39.986844,1723.1,13.8,15.480868,,,,,,,,90.0,,,,,,,21.8,0.048548944375753425
1158,1529019308.199,-105.15489199999999,39.986844,1723.1,13.8,15.317892,,,,,,,,85.0,,,,,,,21.8,0.04619523784980439
1162,1529019308.299,-105.15488700000002,39.986844,1723.2,13.8,14.803035999999999,,,,,,,,90.0,,,,,,,21.8,0.053749418601506754
1165,1529019308.399,-105.154882,39.986844,1723.2,13.8,14.823407999999999,,,,,,,,90.0,,,,,,,21.8,0.04859012245302537
1169,1529019308.501,-105.154877,39.986845,1723.2,13.8,14.378928,,,,,,,,84.0,,,,,,,21.8,0.06334824385884742
1172,1529019308.601,-105.154873,39.986845,1723.2,13.8,14.127056,,,,,,,,90.0,,,,,,,21.8,0.06435837163881634
1176,1529019308.704,-105.15486899999999,39.986845,1723.2,13.8,13.627016000000001,,,,,,,,90.0,,,,,,,21.8,0.07083784299369936
1179,1529019308.799,-105.15486399999999,39.986845,1723.2,13.8,13.547379999999999,,,,,,,,87.0,55.0,55.0,,,,,21.8,
1180,1529019308.799,-105.15486399999999,39.986845,1723.2,13.8,13.547379999999999,,,,,,,,87.0,,,,,,,21.8,0.0838868285251028
1183,1529019308.898,-105.15486000000001,39.986845,1723.2,13.8,12.743611999999999,,,,,,,,86.0,,,,,,,21.8,0.0729520390393579
1187,1529019308.999,-105.15485600000001,39.986845,1723.2,13.8,12.717684,,,,,,,,92.0,,,,,,,21.8,0.045978255730290594
1191,1529019309.122,-105.154852,39.986845,1723.1,13.8,12.165788000000001,,,,,,,,86.0,,,,,,,21.8,0.08544003745317531
1194,1529019309.199,-105.154848,39.986845,1723.1,13.8,11.832428,,,,,,,,86.0,,,,,,,21.8,0.053768020235080254
1198,1529019309.299,-105.154844,39.986845,1723.1,13.8,12.01022,,,,,,,,93.0,,,,,,,21.8,0.05078385570237849
1201,1529019309.398,-105.15484,39.986845,1723.1,13.8,11.215712,,,,,,,,86.0,,,,,,,21.8,0.06330876716537766
1205,1529019309.498,-105.15483700000001,39.986845,1723.2,13.8,10.508248,,,,,,,,90.0,,,,,,,21.8,0.042426406871192854
1208,1529019309.599,-105.15483400000001,39.986845,1723.2,13.8,10.484172000000001,,,,,,,,90.0,,,,,,,21.7,0.04817675788178361
1212,1529019309.699,-105.15483,39.986845,1723.2,13.8,10.169332,,,,,,,,90.0,,,,,,,21.7,0.053301031884945727
1216,1529019309.799,-105.15482800000001,39.986845,1723.2,13.8,9.78782,,,,,,,,90.0,,,,,,,21.7,
1217,1529019309.799,-105.15482800000001,39.986845,1723.2,13.8,9.78782,,,,,,,,90.0,56.0,56.0,,,,,21.7,0.03293933818400121
1220,1529019309.899,-105.154824,39.986845,1723.2,13.8,9.721148,,,,,,,,90.0,,,,,,,21.7,0.045022216737961716
1224,1529019310.004,-105.154822,39.986845,1723.2,13.8,9.397048,,,,,,,,85.0,,,,,,,21.7,0.04696807426326951
1228,1529019310.123,-105.15481899999999,39.986845,1723.2,13.8,8.902564,,,,,,,,90.0,,,,,,,21.7,0.043485629810317804
1230,1529019310.198,-105.154816,39.986845,1723.2,13.8,8.654396,,,,,,,,90.0,,,,,,,21.7,0.04414748010928823
1235,1529019310.299,-105.15481399999999,39.986845,1723.2,13.8,8.293256,,,,,,,,90.0,,,,,,,21.7,0.07302054505411473
1237,1529019310.398,-105.15481100000001,39.986845,1723.3,13.8,7.882111999999999,,,,,,,,95.0,,,,,,,21.7,0.08395832299420945
1241,1529019310.498,-105.15480900000001,39.986845,1723.2,13.8,7.896928,,,,,,,,90.0,,,,,,,21.7,0.04540925015897092
1245,1529019310.599,-105.15480600000001,39.986845,1723.3,13.8,7.172796000000001,,,,,,,,84.0,,,,,,,21.7,0.07457211275000862
1249,1529019310.703,-105.154804,39.986845,1723.3,13.8,6.826472,,,,,,,,96.0,,,,,,,21.7,0.04678675026115834
1252,1529019310.8,-105.154803,39.986845,1723.3,13.8,6.3708800000000005,,,,,,,,90.0,57.0,57.0,,,,,21.7,
1253,1529019310.8,-105.154803,39.986845,1723.3,13.8,6.3708800000000005,,,,,,,,90.0,,,,,,,21.7,0.06168468205316454
1257,1529019310.9,-105.154801,39.986845,1723.4,13.8,6.181976000000001,,,,,,,,83.0,,,,,,,21.7,0.06400781202322103
1260,1529019310.999,-105.154799,39.986845,1723.4,13.8,5.591188,,,,,,,,97.0,,,,,,,21.7,0.08433267456923206
1265,1529019311.123,-105.154798,39.986845,1723.4,13.8,5.076332,,,,,,,,81.0,,,,,,,21.7,0.0655133574166368
1267,1529019311.199,-105.15479599999999,39.986845,1723.4,13.8,5.217084,,,,,,,,83.0,,,,,,,21.7,0.08850988645343524
1271,1529019311.299,-105.154795,39.986845,1723.4,13.8,4.202188,,,,,,,,90.0,,,,,,,21.7,0.07442445834535849
1275,1529019311.4,-105.154793,39.986845,1723.5,13.8,4.098476,,,,,,,,90.0,,,,,,,21.7,0.07918333157931662
1278,1529019311.499,-105.15479199999999,39.986846,1723.5,13.8,3.6336239999999997,,,,,,,,77.0,,,,,,,21.7,0.06768308503607087
1282,1529019311.599,-105.15479099999999,39.986846,1723.5,13.8,3.3743440000000002,,,,,,,,90.0,,,,,,,21.7,0.035972211497209895
1285,1529019311.699,-105.15479099999999,39.986846,1723.5,13.8,2.7724439999999997,,,,,,,,90.0,,,,,,,21.7,0.07887965517166008
1289,1529019311.799,-105.15478999999999,39.986846,1723.5,13.8,2.902084,,,,,,,,90.0,,,,,,,21.7,
1290,1529019311.799,-105.15478999999999,39.986846,1723.5,13.8,2.902084,,,,,,,,90.0,58.0,58.0,,,,,21.7,0.01884144368141677
1294,1529019311.904,-105.154789,39.986846,1723.5,13.8,2.294628,,,,,,,,71.0,,,,,,,21.7,0.03511409973215887
1297,1529019311.999,-105.15478799999998,39.986846,1723.5,13.8,2.502052,,,,,,,,104.0,,,,,,,21.7,0.06120457499239742
1302,1529019312.124,-105.15478799999998,39.986846,1723.5,13.8,1.6575400000000002,,,,,,,,56.0,,,,,,,21.7,0.035902646142032486
1305,1529019312.2,-105.15478700000001,39.986846,1723.5,13.8,1.744584,,,,,,,,90.0,,,,,,,21.7,0.10173003489628812
1308,1529019312.299,-105.15478600000002,39.986846,1723.5,13.8,1.566792,,,,,,,,90.0,,,,,,,21.7,0.009110433579144298
1312,1529019312.4,-105.15478600000002,39.986846,1723.5,13.8,1.41678,,,,,,,,90.0,,,,,,,21.7,0.05651548460377916
1315,1529019312.499,-105.15478600000002,39.986846,1723.5,13.8,1.238988,,,,,,,,90.0,,,,,,,21.7,0.044586993619215906
1319,1529019312.599,-105.15478600000002,39.986846,1723.5,13.8,1.1834280000000001,,,,,,,,90.0,,,,,,,21.7,0.016431676725154984
1323,1529019312.699,-105.154785,39.986846,1723.6,13.8,1.1612040000000001,,,,,,,,90.0,,,,,,,21.7,0.004472135954999579
1326,1529019312.803,-105.154785,39.986846,1723.6,13.8,0.9093319999999999,,,,,,,,270.0,59.0,59.0,,,,,21.7,
1327,1529019312.803,-105.154785,39.986846,1723.6,13.8,0.9093319999999999,,,,,,,,270.0,,,,,,,21.7,0.023043437243605823
1331,1529019312.9,-105.154785,39.986846,1723.6,13.8,0.881552,,,,,,,,37.0,,,,,,,21.7,0.01944222209522358
1334,1529019312.999,-105.154785,39.986846,1723.6,13.8,0.737096,,,,,,,,90.0,,,,,,,21.7,0.015
1338,1529019313.096,-105.154785,39.986846,1723.7,13.8,0.677832,,,,,,,,90.0,,,,,,,21.7,0.024657656011875907
1341,1529019313.199,-105.154785,39.986846,1723.7,13.8,0.38706799999999997,,,,,,,,270.0,,,,,,,21.7,0.007
1345,1529019313.299,-105.154785,39.986846,1723.7,13.8,0.40373600000000004,,,,,,,,90.0,,,,,,,21.7,0.03263433774416144
1349,1529019313.4,-105.154785,39.986846,1723.7,13.8,0.05185599999999999,,,,,,,,270.0,,,,,,,21.7,0.04810405388322277
1352,1529019313.5,-105.154785,39.986846,1723.7,13.8,0.20927600000000002,,,,,,,,90.0,,,,,,,21.7,0.012409673645990858
1356,1529019313.6,-105.154785,39.986846,1723.7,13.8,0.06482,,,,,,,,270.0,,,,,,,21.7,0.01236931687685298
1359,1529019313.7,-105.154785,39.986846,1723.6,13.8,0.025927999999999996,,,,,,,,270.0,,,,,,,21.7,0.029223278392404912
1363,1529019313.799,-105.154785,39.986846,1723.6,13.8,0.081488,,,,,,,,90.0,60.0,60.0,,,,,21.7,
1364,1529019313.799,-105.154785,39.986846,1723.6,13.8,0.081488,,,,,,,,90.0,,,,,,,21.7,0.008660254037844387
1368,1529019313.9,-105.154785,39.986846,1723.6,13.8,0.068524,,,,,,,,270.0,,,,,,,21.7,0.00608276253029822
1371,1529019314.0,-105.154785,39.986846,1723.6,13.8,0.020372,,,,,,,,270.0,,,,,,,21.7,0.023108440016582684
1375,1529019314.122,-105.154785,39.986846,1723.5,13.8,0.0463,,,,,,,,90.0,,,,,,,21.7,0.024779023386727734
1378,1529019314.201,-105.154785,39.986846,1723.5,13.8,0.088896,,,,,,,,270.0,,,,,,,21.7,0.012688577540449521
1381,1529019314.303,-105.154784,39.986846,1723.5,13.8,0.116676,,,,,,,,142.0,,,,,,,21.7,0.021213203435596427
1385,1529019314.396,-105.154784,39.986846,1723.4,13.8,0.183348,,,,,,,,0.0,,,,,,,21.7,0.020904544960366873
1388,1529019314.496,-105.154784,39.986846,1723.4,13.8,0.025927999999999996,,,,,,,,180.0,,,,,,,21.7,0.012727922061357855
1392,1529019314.598,-105.154784,39.986846,1723.4,13.8,0.06482,,,,,,,,270.0,,,,,,,21.7,0.014422205101855958
1395,1529019314.698,-105.154784,39.986846,1723.3,13.8,0.059264,,,,,,,,270.0,,,,,,,21.7,0.031843366656181316
1399,1529019314.801,-105.154784,39.986846,1723.3,13.8,0.094452,,,,,,,,90.0,,,,,,,21.7,0.015811388300841896
1403,1529019314.901,-105.154784,39.986846,1723.2,13.8,0.114824,,,,,,,,90.0,,,,,,,21.7,0.011575836902790225
1406,1529019315.003,-105.154784,39.986846,1723.2,13.8,0.15371600000000002,,,,,,,,180.0,,,,,,,21.7,0.00812403840463596
1409,1529019315.127,-105.154784,39.986845,1723.1,13.8,0.053708000000000006,,,,,,,,180.0,,,,,,,21.7,0.027018512172212593
1411,1529019315.201,-105.154784,39.986845,1723.1,13.8,0.053708000000000006,,,,,,,,270.0,,,,,,,21.7,0.0196468827043885
1413,1529019315.301,-105.154784,39.986845,1723.0,13.8,0.06667200000000001,,,,,,,,270.0,,,,,,,21.7,0.020322401432901576
1415,1529019315.401,-105.154784,39.986845,1723.0,13.8,0.055560000000000005,,,,,,,,180.0,,,,,,,21.7,0.009643650760992955
1417,1529019315.501,-105.154784,39.986845,1723.0,13.8,0.062968,,,,,,,,270.0,,,,,,,21.7,0.01606237840420901
1420,1529019315.601,-105.154784,39.986845,1722.9,13.8,0.094452,,,,,,,,217.0,,,,,,,21.7,0.017233687939614085
1423,1529019315.698,-105.154784,39.986845,1722.9,13.8,0.08519199999999999,,,,,,,,270.0,,,,,,,21.7,0.013341664064126334
1427,1529019315.796,-105.154784,39.986845,1722.9,13.8,0.05185599999999999,,,,,,,,180.0,,,,,,,21.7,0.022715633383201095
1431,1529019315.898,-105.154784,39.986845,1722.8,13.8,0.118528,,,,,,,,270.0,,,,,,,21.7,0.01972308292331602
1434,1529019316.001,-105.154784,39.986845,1722.8,13.8,0.079636,,,,,,,,270.0,,,,,,,21.7,0.02416609194718914
1438,1529019316.12,-105.154785,39.986845,1722.8,13.8,0.048152,,,,,,,,217.0,,,,,,,21.7,0.018627936010197157
1441,1529019316.198,-105.154784,39.986845,1722.8,13.8,0.177792,,,,,,,,90.0,,,,,,,21.7,0.0324037034920393
1445,1529019316.299,-105.154785,39.986845,1722.8,13.8,0.081488,,,,,,,,217.0,,,,,,,21.7,0.020856653614614213
1449,1529019316.398,-105.154785,39.986845,1722.8,13.8,0.112972,,,,,,,,270.0,,,,,,,21.7,0.011575836902790225
1452,1529019316.497,-105.154785,39.986844,1722.7,13.8,0.077784,,,,,,,,180.0,,,,,,,21.7,0.03809199390948182
1456,1529019316.598,-105.154785,39.986844,1722.7,13.8,0.112972,,,,,,,,270.0,,,,,,,21.7,0.019
1459,1529019316.697,-105.154785,39.986844,1722.7,13.8,0.081488,,,,,,,,270.0,,,,,,,21.7,0.019339079605813717
1463,1529019316.798,-105.154785,39.986844,1722.7,13.8,0.109268,,,,,,,,270.0,,,,,,,21.7,0.029631064780058107
1466,1529019316.897,-105.154785,39.986844,1722.7,13.8,0.081488,,,,,,,,180.0,,,,,,,21.7,0.01019803902718557
1470,1529019317.003,-105.154785,39.986844,1722.7,13.8,0.12038,,,,,,,,270.0,,,,,,,21.7,0.024228082879171435
1474,1529019317.12,-105.154784,39.986844,1722.7,13.8,0.08519199999999999,,,,,,,,90.0,,,,,,,21.7,0.040570925550201586
1477,1529019317.202,-105.154784,39.986844,1722.7,13.8,0.035188,,,,,,,,270.0,,,,,,,21.7,0.021494185260204676
1481,1529019317.303,-105.154784,39.986844,1722.6,13.8,0.05185599999999999,,,,,,,,270.0,,,,,,,21.7,0.012961481396815721
1484,1529019317.402,-105.154784,39.986844,1722.6,13.8,0.044448,,,,,,,,142.0,,,,,,,21.7,0.030430248109405877
1488,1529019317.502,-105.154784,39.986844,1722.6,13.8,0.059264,,,,,,,,270.0,,,,,,,21.7,0.036891733491393436
1491,1529019317.601,-105.154784,39.986844,1722.6,13.8,0.105564,,,,,,,,180.0,,,,,,,21.7,0.024515301344262524
1495,1529019317.7,-105.154784,39.986844,1722.6,13.8,0.012963999999999998,,,,,,,,90.0,,,,,,,21.7,0.019078784028338912
1498,1529019317.8,-105.154784,39.986844,1722.6,13.8,0.042595999999999995,,,,,,,,180.0,,,,,,,21.7,0.0378549864614954
1503,1529019317.901,-105.154784,39.986844,1722.6,13.8,0.057412,,,,,,,,270.0,,,,,,,21.7,0.020615528128088305
1506,1529019318.001,-105.154784,39.986844,1722.5,13.8,0.109268,,,,,,,,180.0,,,,,,,21.7,0.023958297101421878
1510,1529019318.12,-105.154784,39.986843,1722.5,13.8,0.05185599999999999,,,,,,,,180.0,,,,,,,21.7,0.03195309061734092
1513,1529019318.201,-105.154784,39.986843,1722.5,13.8,0.075932,,,,,,,,90.0,,,,,,,21.7,0.017804493814764857
1517,1529019318.309,-105.154784,39.986843,1722.5,13.8,0.10371199999999998,,,,,,,,142.0,,,,,,,21.7,0.019621416870348584
1520,1529019318.4,-105.154784,39.986843,1722.5,13.8,0.014816,,,,,,,,270.0,,,,,,,21.7,0.03360059523282288
1523,1529019318.5,-105.154784,39.986843,1722.5,13.8,0.059264,,,,,,,,180.0,,,,,,,21.7,0.028
1527,1529019318.6,-105.154784,39.986843,1722.5,13.8,0.13334400000000002,,,,,,,,270.0,,,,,,,21.7,0.02142428528562855
1531,1529019318.7,-105.154784,39.986843,1722.4,13.8,0.131492,,,,,,,,90.0,,,,,,,21.7,0.04127953488110059
1534,1529019318.801,-105.154784,39.986843,1722.4,13.8,0.137048,,,,,,,,217.0,,,,,,,21.7,0.017748239349298846
1538,1529019318.901,-105.154784,39.986843,1722.4,13.8,0.08519199999999999,,,,,,,,270.0,,,,,,,21.7,0.024596747752497688
1542,1529019319.0,-105.154784,39.986843,1722.4,13.8,0.024076,,,,,,,,270.0,,,,,,,21.7,0.04033608806019741
1546,1529019319.126,-105.154784,39.986843,1722.4,13.8,0.137048,,,,,,,,270.0,,,,,,,21.7,0.01772004514666935
1549,1529019319.2,-105.154784,39.986843,1722.4,13.8,0.059264,,,,,,,,270.0,,,,,,,21.7,0.02641968962724581
1553,1529019319.3,-105.154784,39.986843,1722.4,13.8,0.19075599999999998,,,,,,,,270.0,,,,,,,21.7,0.04988987873306569
1556,1529019319.4,-105.154784,39.986843,1722.3,13.8,0.077784,,,,,,,,180.0,,,,,,,21.7,0.03190611226708764
1560,1529019319.505,-105.154784,39.986843,1722.3,13.8,0.05185599999999999,,,,,,,,270.0,,,,,,,21.7,0.020518284528683192
1563,1529019319.605,-105.154784,39.986843,1722.3,13.8,0.044448,,,,,,,,0.0,,,,,,,21.7,0.04217819341792628
1567,1529019319.705,-105.154784,39.986843,1722.3,13.8,0.192608,,,,,,,,217.0,,,,,,,21.7,0.023622023622035433
1570,1529019319.805,-105.154784,39.986843,1722.3,13.8,0.061116,,,,,,,,37.0,,,,,,,21.7,0.026702059845637376
1574,1529019319.896,-105.154784,39.986843,1722.3,13.8,0.070376,,,,,,,,270.0,,,,,,,21.7,0.029698484809834995
1578,1529019319.997,-105.154784,39.986843,1722.3,13.8,0.112972,,,,,,,,90.0,,,,,,,21.7,0.028740215726399825
1581,1529019320.123,-105.154784,39.986843,1722.3,13.8,0.098156,,,,,,,,270.0,,,,,,,21.7,0.03303028912982749
1585,1529019320.198,-105.154784,39.986843,1722.3,13.8,0.044448,,,,,,,,270.0,,,,,,,21.7,0.03469870314579494
1588,1529019320.298,-105.15478300000001,39.986843,1722.3,13.8,0.100008,,,,,,,,37.0,,,,,,,21.7,0.02727636339397171
1592,1529019320.398,-105.15478300000001,39.986843,1722.3,13.8,0.090748,,,,,,,,270.0,,,,,,,21.7,0.03834057902536163
1596,1529019320.498,-105.15478300000001,39.986843,1722.4,13.8,0.131492,,,,,,,,0.0,,,,,,,21.7,0.013190905958272919
1599,1529019320.598,-105.15478300000001,39.986843,1722.3,13.8,0.098156,,,,,,,,270.0,,,,,,,21.7,0.043289721643826724
1603,1529019320.703,-105.15478300000001,39.986843,1722.4,13.8,0.06667200000000001,,,,,,,,0.0,,,,,,,21.7,0.030822070014844882
1606,1529019320.799,-105.15478300000001,39.986843,1722.4,13.8,0.112972,,,,,,,,90.0,,,,,,,21.7,0.029444863728670917
1610,1529019320.898,-105.15478300000001,39.986844,1722.4,13.8,0.03704,,,,,,,,37.0,,,,,,,21.7,0.026570660511172847
1614,1529019321.0,-105.15478300000001,39.986844,1722.4,13.8,0.03704,,,,,,,,270.0,,,,,,,21.7,0.029223278392404912
1617,1529019321.122,-105.15478300000001,39.986844,1722.4,13.8,0.146308,,,,,,,,270.0,,,,,,,21.7,0.02097617696340303
1621,1529019321.199,-105.15478300000001,39.986844,1722.4,13.8,0.070376,,,,,,,,37.0,,,,,,,21.7,0.03507135583350036
1624,1529019321.296,-105.15478300000001,39.986844,1722.4,13.8,0.061116,,,,,,,,0.0,,,,,,,21.7,0.019621416870348584
1628,1529019321.397,-105.15478300000001,39.986844,1722.4,13.8,0.179644,,,,,,,,90.0,,,,,,,21.7,0.018138357147217055
1632,1529019321.503,-105.15478300000001,39.986844,1722.4,13.8,0.090748,,,,,,,,0.0,,,,,,,21.7,0.024103941586387897
1635,1529019321.6,-105.15478300000001,39.986844,1722.4,13.8,0.094452,,,,,,,,37.0,,,,,,,21.7,0.029546573405388316
1639,1529019321.698,-105.15478300000001,39.986844,1722.5,13.8,0.105564,,,,,,,,270.0,,,,,,,21.7,0.05177837386399847
1642,1529019321.799,-105.15478300000001,39.986844,1722.5,13.8,0.044448,,,,,,,,0.0,,,,,,,21.7,0.028653097563788806
1646,1529019321.899,-105.15478200000001,39.986845,1722.5,13.8,0.014816,,,,,,,,37.0,,,,,,,21.7,0.02753179979587241
1650,1529019321.999,-105.15478200000001,39.986845,1722.5,13.8,0.11112000000000001,,,,,,,,0.0,,,,,,,21.7,0.054790510127210895
1653,1529019322.122,-105.15478200000001,39.986845,1722.6,13.8,0.137048,,,,,,,,37.0,,,,,,,21.7,0.033674916480965475
1657,1529019322.199,-105.15478200000001,39.986845,1722.6,13.8,0.2315,,,,,,,,0.0,,,,,,,21.7,0.021656407827707714
1660,1529019322.299,-105.15478200000001,39.986845,1722.6,13.8,0.08334,,,,,,,,90.0,,,,,,,21.7,0.045310043036836764
1664,1529019322.399,-105.15478200000001,39.986845,1722.7,13.8,0.03704,,,,,,,,0.0,,,,,,,21.7,0.02315167380558045
1668,1529019322.499,-105.15478200000001,39.986846,1722.7,13.8,0.188904,,,,,,,,20.0,,,,,,,21.7,0.024228082879171435
1671,1529019322.598,-105.15478200000001,39.986846,1722.8,13.8,0.040744,,,,,,,,0.0,,,,,,,21.7,0.04565084884205331
1675,1529019322.696,-105.15478200000001,39.986846,1722.8,13.8,0.159272,,,,,,,,20.0,,,,,,,21.7,0.02903446228191595
1678,1529019322.797,-105.15478200000001,39.986846,1722.8,13.8,0.068524,,,,,,,,270.0,,,,,,,21.7,0.046957427527495585
1682,1529019322.9,-105.15478200000001,39.986847,1722.9,13.8,0.19075599999999998,,,,,,,,0.0,,,,,,,21.7,0.03456877203488721
1686,1529019322.999,-105.15478200000001,39.986847,1722.9,13.8,0.10371199999999998,,,,,,,,37.0,,,,,,,21.7,0.036359317925395686
1689,1529019323.122,-105.15478200000001,39.986847,1722.9,13.8,0.098156,,,,,,,,0.0,,,,,,,21.7,0.029171904291629643
1693,1529019323.199,-105.154781,39.986847,1723.0,13.8,0.142604,,,,,,,,20.0,,,,,,,21.7,0.02649528259898354
1697,1529019323.298,-105.154781,39.986847,1723.0,13.8,0.088896,,,,,,,,37.0,,,,,,,21.7,0.03765634076752546
1700,1529019323.399,-105.154781,39.986847999999995,1723.0,13.8,0.15742,,,,,,,,37.0,,,,,,,21.7,0.03850973902793941
1704,1529019323.498,-105.154781,39.986847999999995,1723.1,13.8,0.17594,,,,,,,,270.0,,,,,,,21.7,0.03456877203488721
1707,1529019323.599,-105.154781,39.986847999999995,1723.1,13.8,0.41299600000000003,,,,,,,,0.0,,,,,,,21.7,0.022045407685048604
1711,1529019323.7,-105.154781,39.986847999999995,1723.2,13.8,0.188904,,,,,,,,270.0,,,,,,,21.7,0.041773197148410844
1715,1529019323.799,-105.154781,39.986847999999995,1723.2,13.8,0.122232,,,,,,,,270.0,,,,,,,21.7,0.037255872020394314
1718,1529019323.898,-105.154781,39.986847999999995,1723.2,13.8,0.25001999999999996,,,,,,,,37.0,,,,,,,21.7,0.02844292530665578
1722,1529019323.999,-105.154781,39.986847999999995,1723.3,13.8,0.08519199999999999,,,,,,,,0.0,,,,,,,21.7,0.022360679774997894
1725,1529019324.097,-105.154781,39.986847999999995,1723.2,13.8,0.090748,,,,,,,,270.0,,,,,,,21.7,0.041665333311999314
1729,1529019324.199,-105.154781,39.986849,1723.3,13.8,0.135196,,,,,,,,0.0,,,,,,,21.7,0.03318132004607412
1733,1529019324.298,-105.154781,39.986849,1723.3,13.8,0.131492,,,,,,,,20.0,,,,,,,21.7,0.035860842154082216
1735,1529019324.398,-105.154781,39.986849,1723.3,13.8,0.218536,,,,,,,,180.0,,,,,,,21.7,0.03690528417449187
1739,1529019324.498,-105.154781,39.986849,1723.4,13.8,0.0463,,,,,,,,0.0,,,,,,,21.7,0.03414674215792775
1743,1529019324.599,-105.154781,39.986849,1723.4,13.8,0.020372,,,,,,,,0.0,,,,,,,21.7,0.03753664875824692
1747,1529019324.703,-105.154781,39.986849,1723.4,13.8,0.07408,,,,,,,,270.0,,,,,,,21.7,0.037
1750,1529019324.798,-105.154781,39.98685,1723.5,13.8,0.12408399999999999,,,,,,,,0.0,,,,,,,21.7,0.030099833886584826
1753,1529019324.898,-105.154781,39.98685,1723.5,13.8,0.21668400000000002,,,,,,,,37.0,,,,,,,21.7,0.04929503017546495
1757,1529019324.998,-105.154781,39.98685,1723.5,13.8,0.0463,,,,,,,,270.0,,,,,,,21.7,0.027676705006196095
1760,1529019325.124,-105.154781,39.98685,1723.5,13.8,0.17408800000000002,,,,,,,,0.0,,,,,,,21.7,0.03477067730142742
1762,1529019325.2,-105.154781,39.98685,1723.6,13.8,0.200016,,,,,,,,270.0,,,,,,,21.7,0.035902646142032486
1764,1529019325.297,-105.154781,39.98685,1723.6,13.8,0.072228,,,,,,,,0.0,,,,,,,21.7,0.04401136216933077
1766,1529019325.398,-105.154781,39.98685,1723.6,13.8,0.187052,,,,,,,,0.0,,,,,,,21.7,0.029816103031751147
1768,1529019325.496,-105.15478,39.986851,1723.6,13.8,0.1389,,,,,,,,37.0,,,,,,,21.7,0.0214009345590327
1771,1529019325.599,-105.15478,39.986851,1723.6,13.8,0.29632,,,,,,,,270.0,,,,,,,21.7,0.04495553358597804
1775,1529019325.698,-105.154781,39.986851,1723.6,13.8,0.438924,,,,,,,,339.0,,,,,,,21.7,0.03940812099047607
1779,1529019325.799,-105.15478,39.986851,1723.6,13.8,0.383364,,,,,,,,90.0,,,,,,,21.7,0.020976176963403034
1782,1529019325.899,-105.15478,39.986851,1723.6,13.8,0.022224,,,,,,,,270.0,,,,,,,21.7,0.03935733730830886
1786,1529019326.0,-105.15478,39.986851,1723.6,13.8,0.031484,,,,,,,,0.0,,,,,,,21.7,0.03911521443121589
1790,1529019326.121,-105.15478,39.986851,1723.6,13.8,0.224092,,,,,,,,270.0,,,,,,,21.7,0.03952214569073901
1793,1529019326.2,-105.15478,39.986851,1723.6,13.8,0.014816,,,,,,,,0.0,,,,,,,21.7,0.033645207682521446
1797,1529019326.299,-105.154781,39.986851,1723.7,13.8,0.211128,,,,,,,,322.0,,,,,,,21.7,0.018138357147217055
1800,1529019326.399,-105.15478,39.986851,1723.7,13.8,0.12038,,,,,,,,90.0,,,,,,,21.7,0.059774576535513824
1804,1529019326.5,-105.15478,39.986852,1723.7,13.8,0.061116,,,,,,,,0.0,,,,,,,21.7,0.040570925550201586
1807,1529019326.6,-105.154781,39.986852,1723.7,13.8,0.168532,,,,,,,,322.0,,,,,,,21.7,0.042296571965113196
1811,1529019326.699,-105.154781,39.986852,1723.7,13.8,0.10741600000000001,,,,,,,,270.0,,,,,,,21.7,0.03749666651850535
1815,1529019326.797,-105.154781,39.986852,1723.7,13.8,0.20372,,,,,,,,270.0,,,,,,,21.7,0.03337663853655727
1818,1529019326.897,-105.154781,39.986852,1723.7,13.8,0.098156,,,,,,,,322.0,,,,,,,21.7,0.03837968212479098
1822,1529019326.999,-105.154781,39.986852,1723.7,13.8,0.168532,,,,,,,,270.0,,,,,,,21.7,0.022158519806160338
1826,1529019327.122,-105.154781,39.986852,1723.7,13.8,0.19446,,,,,,,,37.0,,,,,,,21.7,0.02949576240750525
1829,1529019327.2,-105.154781,39.986852,1723.7,13.8,0.183348,,,,,,,,270.0,,,,,,,21.7,0.038845849199110064
1833,1529019327.303,-105.154781,39.986852,1723.7,13.8,0.007408,,,,,,,,0.0,,,,,,,21.7,0.032710854467592254
1836,1529019327.4,-105.154781,39.986852,1723.7,13.8,0.144456,,,,,,,,270.0,,,,,,,21.7,0.029034462281915953
1840,1529019327.498,-105.154781,39.986852,1723.7,13.8,0.12964,,,,,,,,270.0,,,,,,,21.7,0.029748949561287038
1844,1529019327.599,-105.154781,39.986853,1723.7,13.8,0.168532,,,,,,,,37.0,,,,,,,21.7,0.04801041553663121
1847,1529019327.698,-105.154781,39.986853,1723.7,13.8,0.183348,,,,,,,,270.0,,,,,,,21.7,0.041737273509418416
1851,1529019327.799,-105.154781,39.986853,1723.7,13.8,0.08704400000000001,,,,,,,,270.0,,,,,,,21.7,0.03996248240537617
1854,1529019327.903,-105.154781,39.986853,1723.7,13.8,0.062968,,,,,,,,0.0,,,,,,,21.7,0.03534119409414458
1858,1529019327.999,-105.154781,39.986853,1723.7,13.8,0.0926,,,,,,,,270.0,,,,,,,21.7,0.04495553358597804
1862,1529019328.122,-105.154781,39.986853,1723.7,13.8,0.068524,,,,,,,,270.0,,,,,,,21.7,0.04466542286825459
1865,1529019328.198,-105.154781,39.986853,1723.7,13.8,0.042595999999999995,,,,,,,,0.0,,,,,,,21.7,0.03517101079013795
1869,1529019328.297,-105.154781,39.986853,1723.7,13.8,0.014816,,,,,,,,270.0,,,,,,,21.7,0.024779023386727734
1872,1529019328.398,-105.154781,39.986853,1723.7,13.8,0.029632,,,,,,,,322.0,,,,,,,21.7,0.04851803788283281
1876,1529019328.498,-105.154781,39.986853,1723.7,13.8,0.24076,,,,,,,,90.0,,,,,,,21.7,0.03293933818400121
1880,1529019328.598,-105.154781,39.986853,1723.7,13.8,0.057412,,,,,,,,270.0,,,,,,,21.7,0.03383784863137727
1883,1529019328.698,-105.15478200000001,39.986853,1723.7,13.8,0.094452,,,,,,,,322.0,,,,,,,21.7,0.03809199390948182
1887,1529019328.797,-105.15478200000001,39.986853,1723.7,13.8,0.1852,,,,,,,,0.0,,,,,,,21.7,0.03766961640367473
1890,1529019328.898,-105.15478200000001,39.986854,1723.7,13.8,0.112972,,,,,,,,322.0,,,,,,,21.7,0.04687216658103186
1894,1529019328.998,-105.15478200000001,39.986853,1723.7,13.8,0.168532,,,,,,,,180.0,,,,,,,21.7,0.03059411708155671
1897,1529019329.121,-105.15478200000001,39.986854,1723.7,13.8,0.23890799999999998,,,,,,,,339.0,,,,,,,21.7,0.06997856814768362
1901,1529019329.198,-105.15478200000001,39.986854,1723.7,13.8,0.11112000000000001,,,,,,,,270.0,,,,,,,21.7,0.07313685801290619
1905,1529019329.298,-105.15478200000001,39.986854,1723.7,13.8,0.396328,,,,,,,,37.0,,,,,,,21.7,0.05097057974949864
1908,1529019329.397,-105.15478200000001,39.986854,1723.7,13.8,0.572268,,,,,,,,0.0,,,,,,,21.7,0.03212475680841802
1912,1529019329.498,-105.15478200000001,39.986854,1723.7,13.8,0.6167159999999999,,,,,,,,322.0,,,,,,,21.7,0.029546573405388313
1916,1529019329.597,-105.15478200000001,39.986854,1723.7,13.8,0.8222879999999999,,,,,,,,0.0,,,,,,,21.7,0.022360679774997897
1919,1529019329.697,-105.15478200000001,39.986854,1723.7,13.8,0.7408,,,,,,,,270.0,,,,,,,21.7,0.057341084747325806
1923,1529019329.798,-105.15478200000001,39.986855,1723.7,13.8,1.168612,,,,,,,,56.0,,,,,,,21.7,0.03950949253027682
1926,1529019329.898,-105.15478200000001,39.986855,1723.7,13.8,1.170464,,,,,,,,90.0,,,,,,,21.7,0.10239628899525607
1930,1529019329.998,-105.154781,39.986855,1723.7,13.8,1.5464200000000001,,,,,,,,37.0,,,,,,,21.7,0.12532358118087752
1933,1529019330.097,-105.154781,39.986855,1723.7,13.8,1.83348,,,,,,,,90.0,,,,,,,21.7,0.1409113196304683
1937,1529019330.199,-105.15478,39.986855,1723.6,13.8,2.4001919999999997,,,,,,,,90.0,,,,,,,21.7,0.15151567575666883
1941,1529019330.299,-105.154779,39.986855,1723.6,13.8,2.8631919999999997,,,,,,,,90.0,,,,,,,21.7,0.1424394608245903
1944,1529019330.399,-105.15477800000001,39.986855,1723.6,13.8,3.216924,,,,,,,,77.0,,,,,,,21.7,0.1553769609691218
1948,1529019330.498,-105.154777,39.986855,1723.6,13.8,3.948464,,,,,,,,90.0,,,,,,,21.7,0.13463283403390125
1951,1529019330.598,-105.154776,39.986855,1723.6,13.8,4.496656,,,,,,,,80.0,,,,,,,21.7,0.11417092449481173
